{
"type": "FeatureCollection",
"name": "centroids2019_v7_0711",
"crs": { "type": "name", "properties": { "name": "urn:ogc:def:crs:OGC:1.3:CRS84" } },
"features": [
{ "type": "Feature", "properties": { "show_label": "", "icon": null, "show_icon": "", "id": "9996", "rotate": 45, "left_panel": null, "name": "VIP Area", "type": "Amusement", "description": null, "details": null }, "geometry": { "type": "Point", "coordinates": [ -122.384783241051366, 47.667734885855452 ] } },
{ "type": "Feature", "properties": { "show_label": null, "icon": null, "show_icon": null, "id": "9997", "rotate": null, "left_panel": true, "name": "Gravity Payments Main Stage", "type": "Amusement", "description": null, "details": null }, "geometry": { "type": "Point", "coordinates": [ -122.384714459838762, 47.667541770955509 ] } },
{ "type": "Feature", "properties": { "show_label": "true", "icon": null, "show_icon": null, "id": "9999", "rotate": 45, "left_panel": true, "name": "Beer Garden", "type": "Amusement", "description": null, "details": null }, "geometry": { "type": "Point", "coordinates": [ -122.385253411062962, 47.667933702121836 ] } },
{ "type": "Feature", "properties": { "show_label": "true", "icon": null, "show_icon": "false", "id": "9993", "rotate": 90, "left_panel": true, "name": "Trident Seafoods Salmon BBQ", "type": "Food", "description": null, "details": null }, "geometry": { "type": "Point", "coordinates": [ -122.384738040911671, 47.66909565341183 ] } },
{ "type": "Feature", "properties": { "show_label": "true", "icon": null, "show_icon": null, "id": "197", "rotate": null, "left_panel": true, "name": "Big Purple Slide", "type": "Amusement", "description": null, "details": null }, "geometry": { "type": "Point", "coordinates": [ -122.384739347130775, 47.669689819986466 ] } },
{ "type": "Feature", "properties": { "show_label": "true", "icon": null, "show_icon": null, "id": "9994", "rotate": 50, "left_panel": true, "name": "Game Plank", "type": "Amusement", "description": null, "details": null }, "geometry": { "type": "Point", "coordinates": [ -122.383880607221357, 47.666909050576436 ] } },
{ "type": "Feature", "properties": { "show_label": "true", "icon": null, "show_icon": null, "id": "9995", "rotate": 90, "left_panel": true, "name": "Ballard Market Kid's Deck", "type": "Amusement", "description": null, "details": null }, "geometry": { "type": "Point", "coordinates": [ -122.38509356975554, 47.670170374084805 ] } },
{ "type": "Feature", "properties": { "show_label": "true", "icon": null, "show_icon": null, "id": "192", "rotate": null, "left_panel": true, "name": "Festi-Bowl", "type": "Amusement", "description": null, "details": null }, "geometry": { "type": "Point", "coordinates": [ -122.385650295883764, 47.670450125520112 ] } },
{ "type": "Feature", "properties": { "show_label": "", "icon": null, "show_icon": "", "id": "191", "rotate": null, "left_panel": null, "name": "Kid's Deck Stage", "type": "Amusement", "description": null, "details": null }, "geometry": { "type": "Point", "coordinates": [ -122.385490006087352, 47.670429903969627 ] } }
]
}
