{"type":"FeatureCollection","name":"polygons_2018","features":[{"type":"Feature","properties":{"show_label":"","active":"","toggleSymb":"","icon":null,"show_icon":"","details":"","toggleSym1":"","typeDiscrib":"Sponsor","id":"1","name":"Ofo Bikes","size":"10'x10","type":"Sponsor","expired":null,"rotate":null,"left_panel":null},"geometry":{"type":"Point","coordinates":[-122.38726250000002,47.66872134]}},{"type":"Feature","properties":{"show_label":"","active":"","toggleSymb":"","icon":null,"show_icon":"","details":"","toggleSym1":"","typeDiscrib":"Jewelry","id":"2","name":"West Coast Sea Glass","size":"10'x10","type":"A/C","expired":null,"rotate":null,"left_panel":null},"geometry":{"type":"Point","coordinates":[-122.38726250000002,47.668665645148998]}},{"type":"Feature","properties":{"show_label":"","active":"","toggleSymb":"","icon":null,"show_icon":"","details":"","toggleSym1":"","typeDiscrib":"Sponsor","id":"3","name":"Ofo Bikes","size":"10'x10","type":"Sponsor","expired":null,"rotate":null,"left_panel":null},"geometry":{"type":"Point","coordinates":[-122.3872341,47.66872134]}},{"type":"Feature","properties":{"show_label":"","active":"","toggleSymb":"","icon":null,"show_icon":"","details":"","toggleSym1":"","typeDiscrib":"Hand-made sweaters","id":"4","name":"Sweetie Sweaters","size":"10'x10","type":"A/C","expired":null,"rotate":null,"left_panel":null},"geometry":{"type":"Point","coordinates":[-122.3872341,47.668665645148998]}},{"type":"Feature","properties":{"show_label":"","active":"","toggleSymb":"","icon":null,"show_icon":"","details":"","toggleSym1":"","typeDiscrib":"Sponsor","id":"5","name":"Ofo Booth","size":"10'x10","type":"Sponsor","expired":null,"rotate":null,"left_panel":null},"geometry":{"type":"Point","coordinates":[-122.387157099999968,47.66872109]}},{"type":"Feature","properties":{"show_label":"","active":"","toggleSymb":"","icon":null,"show_icon":"","details":"","toggleSym1":"","typeDiscrib":"Pyschic","id":"6","name":"The Psychic Temple","size":"10'x10","type":"A/C","expired":null,"rotate":null,"left_panel":null},"geometry":{"type":"Point","coordinates":[-122.387157399999978,47.668664525148998]}},{"type":"Feature","properties":{"show_label":"","active":"","toggleSymb":"","icon":null,"show_icon":"","details":"","toggleSym1":"","typeDiscrib":"Jewelry","id":"7","name":"J McCormick Designs","size":"10'x10","type":"A/C","expired":null,"rotate":null,"left_panel":null},"geometry":{"type":"Point","coordinates":[-122.387127299999975,47.66872109]}},{"type":"Feature","properties":{"show_label":"","active":"","toggleSymb":"","icon":null,"show_icon":"","details":"","toggleSym1":"","typeDiscrib":"Paintings","id":"8","name":"Renee Staeck","size":"10'x10","type":"A/C","expired":null,"rotate":null,"left_panel":null},"geometry":{"type":"Point","coordinates":[-122.387127299999975,47.668664765148996]}},{"type":"Feature","properties":{"show_label":"","active":"","toggleSymb":"","icon":null,"show_icon":"","details":"","toggleSym1":"","typeDiscrib":"Non-profit emergency communications","id":"9","name":"Western Washington Medical Services Communications","size":"10'x10","type":"Non-Profit","expired":null,"rotate":null,"left_panel":null},"geometry":{"type":"Point","coordinates":[-122.387046600000019,47.66872109]}},{"type":"Feature","properties":{"show_label":"","active":"","toggleSymb":"","icon":null,"show_icon":"","details":"","toggleSym1":"","typeDiscrib":"Olive oils","id":"10","name":"Olive Branch / A Taste of Eden","size":"10'x10","type":"A/C","expired":null,"rotate":null,"left_panel":null},"geometry":{"type":"Point","coordinates":[-122.387046,47.668664695148998]}},{"type":"Feature","properties":{"show_label":"","active":"","toggleSymb":"","icon":null,"show_icon":"","details":"","toggleSym1":"","typeDiscrib":"Ethnic-inspired crafts and jewelry","id":"11","name":"ETH-YO Artifacts","size":"10'x10","type":"A/C","expired":null,"rotate":null,"left_panel":null},"geometry":{"type":"Point","coordinates":[-122.387016599999981,47.66872134]}},{"type":"Feature","properties":{"show_label":"","active":"","toggleSymb":"","icon":null,"show_icon":"","details":"","toggleSym1":"","typeDiscrib":"Clothing","id":"12","name":"Sabrina Shane Co.","size":"10'x10","type":"A/C","expired":null,"rotate":null,"left_panel":null},"geometry":{"type":"Point","coordinates":[-122.387016599999981,47.668664945148997]}},{"type":"Feature","properties":{"show_label":"","active":"","toggleSymb":"","icon":null,"show_icon":"","details":"","toggleSym1":"","typeDiscrib":"Wind spinners","id":"13","name":"NW Wind Spinners","size":"10'x10","type":"A/C","expired":null,"rotate":null,"left_panel":null},"geometry":{"type":"Point","coordinates":[-122.386945200000014,47.66871993]}},{"type":"Feature","properties":{"show_label":"","active":"","toggleSymb":"","icon":null,"show_icon":"","details":"","toggleSym1":"","typeDiscrib":"Non-profit","id":"14","name":"Lupus Foundation","size":"10'x10","type":"Non-Profit","expired":null,"rotate":null,"left_panel":null},"geometry":{"type":"Point","coordinates":[-122.386945299999979,47.668663045148996]}},{"type":"Feature","properties":{"show_label":"","active":"","toggleSymb":"","icon":null,"show_icon":"","details":"","toggleSym1":"","typeDiscrib":"Silk clothing","id":"15","name":"Silk From the Hartz","size":"10'x10","type":"A/C","expired":null,"rotate":null,"left_panel":null},"geometry":{"type":"Point","coordinates":[-122.386915199999976,47.66872012]}},{"type":"Feature","properties":{"show_label":"","active":"","toggleSymb":"","icon":null,"show_icon":"","details":"","toggleSym1":"","typeDiscrib":"Bubbles","id":"16","name":"Northwest Sales","size":"10'x10","type":"A/C","expired":null,"rotate":null,"left_panel":null},"geometry":{"type":"Point","coordinates":[-122.386915199999976,47.668663775148993]}},{"type":"Feature","properties":{"show_label":"","active":"","toggleSymb":"","icon":null,"show_icon":"","details":"","toggleSym1":"","typeDiscrib":"Wooden jewelry","id":"17","name":"Valhalla Resin Works","size":"10'x10","type":"A/C","expired":null,"rotate":null,"left_panel":null},"geometry":{"type":"Point","coordinates":[-122.386834099999987,47.66872159]}},{"type":"Feature","properties":{"show_label":"","active":"","toggleSymb":"","icon":null,"show_icon":"","details":"","toggleSym1":"","typeDiscrib":"Clothing and jewelry","id":"18","name":"Wayi Bamboo","size":"10'x10","type":"A/C","expired":null,"rotate":null,"left_panel":null},"geometry":{"type":"Point","coordinates":[-122.386834099999987,47.668665245148993]}},{"type":"Feature","properties":{"show_label":"","active":"","toggleSymb":"","icon":null,"show_icon":"","details":"","toggleSym1":"","typeDiscrib":"Alaskan Way Viaduct Replacement Program","id":"19","name":"EnviroIssues / WSDOT","size":"10'x10","type":"Non-Profit","expired":null,"rotate":null,"left_panel":null},"geometry":{"type":"Point","coordinates":[-122.386804699999971,47.66872183]}},{"type":"Feature","properties":{"show_label":"","active":"","toggleSymb":"","icon":null,"show_icon":"","details":"","toggleSym1":"","typeDiscrib":"Caricatures","id":"20","name":"Over the Line Art","size":"10'x10","type":"A/C","expired":null,"rotate":null,"left_panel":null},"geometry":{"type":"Point","coordinates":[-122.3868046,47.668665245148993]}},{"type":"Feature","properties":{"show_label":"","active":"","toggleSymb":"","icon":null,"show_icon":"","details":"","toggleSym1":"","typeDiscrib":"The West Seattle and Ballard Link Extention project","id":"21","name":"EnviroIssues / Sound Transit","size":"10'x10","type":"Non-Profit","expired":null,"rotate":null,"left_panel":null},"geometry":{"type":"Point","coordinates":[-122.38672170000001,47.66872078]}},{"type":"Feature","properties":{"show_label":"","active":"","toggleSymb":"","icon":null,"show_icon":"","details":"","toggleSym1":"","typeDiscrib":"Hats","id":"22","name":"Classic Collection Hats","size":"10'x20'","type":"A/C","expired":null,"rotate":null,"left_panel":null},"geometry":{"type":"Point","coordinates":[-122.386721200000011,47.668664275148998]}},{"type":"Feature","properties":{"show_label":"","active":"","toggleSymb":"","icon":null,"show_icon":"","details":"","toggleSym1":"","typeDiscrib":"Non-profit local radio station","id":"23","name":"KFBG 107.3 FM","size":"10'x10","type":"Non-Profit","expired":null,"rotate":null,"left_panel":null},"geometry":{"type":"Point","coordinates":[-122.386691700000029,47.6687206]}},{"type":"Feature","properties":{"show_label":"","active":"","toggleSymb":"","icon":null,"show_icon":"","details":"","toggleSym1":"","typeDiscrib":"Hats","id":"24","name":"Classic Collection Hats","size":"10'x20'","type":"A/C","expired":null,"rotate":null,"left_panel":null},"geometry":{"type":"Point","coordinates":[-122.386691700000029,47.668664275148998]}},{"type":"Feature","properties":{"show_label":"","active":"","toggleSymb":"","icon":null,"show_icon":"","details":"","toggleSym1":"","typeDiscrib":"Sponsor","id":"25","name":"Smith Brothers Farms","size":"10'x10","type":"Sponsor","expired":null,"rotate":null,"left_panel":null},"geometry":{"type":"Point","coordinates":[-122.3866099,47.66872134]}},{"type":"Feature","properties":{"show_label":"","active":"","toggleSymb":"","icon":null,"show_icon":"","details":"","toggleSym1":"","typeDiscrib":"Sponsor","id":"26","name":"Renewal by Anderson","size":"10'x10","type":"Sponsor","expired":null,"rotate":null,"left_panel":null},"geometry":{"type":"Point","coordinates":[-122.386609300000032,47.668664445148998]}},{"type":"Feature","properties":{"show_label":"","active":"","toggleSymb":"","icon":null,"show_icon":"","details":"","toggleSym1":"","typeDiscrib":"Sponsor","id":"27","name":"Sugar Plum","size":"10'x10","type":"Sponsor","expired":null,"rotate":null,"left_panel":null},"geometry":{"type":"Point","coordinates":[-122.3865805,47.66872159]}},{"type":"Feature","properties":{"show_label":"","active":"","toggleSymb":"","icon":null,"show_icon":"","details":"","toggleSym1":"","typeDiscrib":"Sponsor","id":"28","name":"Gutter Helmet","size":"10'x10","type":"Sponsor","expired":null,"rotate":null,"left_panel":null},"geometry":{"type":"Point","coordinates":[-122.386580400000014,47.668664445148998]}},{"type":"Feature","properties":{"show_label":"","active":"","toggleSymb":"","icon":null,"show_icon":"","details":"","toggleSym1":"","typeDiscrib":"Sponsor","id":"29","name":"Integrated Rehab Group","size":"10'x10'","type":"Sponsor","expired":null,"rotate":null,"left_panel":null},"geometry":{"type":"Point","coordinates":[-122.386502399999983,47.66872052]}},{"type":"Feature","properties":{"show_label":"","active":"","toggleSymb":"","icon":null,"show_icon":"","details":"","toggleSym1":"","typeDiscrib":"Clothing","id":"30","name":"Uphill Designs Co.","size":"10'x20'","type":"A/C","expired":null,"rotate":null,"left_panel":null},"geometry":{"type":"Point","coordinates":[-122.386502300000018,47.668664025148992]}},{"type":"Feature","properties":{"show_label":"","active":"","toggleSymb":"","icon":null,"show_icon":"","details":"","toggleSym1":"","typeDiscrib":"Jewelry","id":"31","name":"Cat's Creations","size":"10'x10","type":"A/C","expired":null,"rotate":null,"left_panel":null},"geometry":{"type":"Point","coordinates":[-122.386473,47.6687206]}},{"type":"Feature","properties":{"show_label":"","active":"","toggleSymb":"","icon":null,"show_icon":"","details":"","toggleSym1":"","typeDiscrib":"Clothing","id":"32","name":"Uphill Designs Co.","size":"10'x20'","type":"A/C","expired":null,"rotate":null,"left_panel":null},"geometry":{"type":"Point","coordinates":[-122.386473,47.668664275148998]}},{"type":"Feature","properties":{"show_label":"","active":"","toggleSymb":"","icon":null,"show_icon":"","details":"","toggleSym1":"","typeDiscrib":"Clothing","id":"33","name":"Un Solo Pueblo","size":"10'x20","type":"A/C","expired":null,"rotate":null,"left_panel":null},"geometry":{"type":"Point","coordinates":[-122.3863907,47.66872145]}},{"type":"Feature","properties":{"show_label":"","active":"","toggleSymb":"","icon":null,"show_icon":"","details":"","toggleSym1":"","typeDiscrib":"Metal art","id":"34","name":"Trapp Industries","size":"10'x20'","type":"A/C","expired":null,"rotate":null,"left_panel":null},"geometry":{"type":"Point","coordinates":[-122.386390300000016,47.668665285148997]}},{"type":"Feature","properties":{"show_label":"","active":"","toggleSymb":"","icon":null,"show_icon":"","details":"","toggleSym1":"","typeDiscrib":"Clothing","id":"35","name":"Un Solo Pueblo","size":"10'x20","type":"A/C","expired":null,"rotate":null,"left_panel":null},"geometry":{"type":"Point","coordinates":[-122.386360500000023,47.66872174]}},{"type":"Feature","properties":{"show_label":"","active":"","toggleSymb":"","icon":null,"show_icon":"","details":"","toggleSym1":"","typeDiscrib":"Metal art","id":"36","name":"Trapp Industries","size":"10'x20'","type":"A/C","expired":null,"rotate":null,"left_panel":null},"geometry":{"type":"Point","coordinates":[-122.386360299999978,47.668665245148993]}},{"type":"Feature","properties":{"show_label":"","active":"","toggleSymb":"","icon":null,"show_icon":"","details":"","toggleSym1":"","typeDiscrib":"Sponsor","id":"37","name":"Getaround","size":"10'x10","type":"Sponsor","expired":null,"rotate":null,"left_panel":null},"geometry":{"type":"Point","coordinates":[-122.386281600000018,47.66872159]}},{"type":"Feature","properties":{"show_label":"","active":"","toggleSymb":"","icon":null,"show_icon":"","details":"","toggleSym1":"","typeDiscrib":"Sponsor","id":"38","name":"Patagonia","size":"10'x20'","type":"Sponsor","expired":null,"rotate":null,"left_panel":null},"geometry":{"type":"Point","coordinates":[-122.386281,47.668665385148998]}},{"type":"Feature","properties":{"show_label":"","active":"","toggleSymb":"","icon":null,"show_icon":"","details":"","toggleSym1":"","typeDiscrib":"Sponsor","id":"39","name":"BECU","size":"10'x10","type":"Sponsor","expired":null,"rotate":null,"left_panel":null},"geometry":{"type":"Point","coordinates":[-122.3862517,47.66872183]}},{"type":"Feature","properties":{"show_label":"","active":"","toggleSymb":"","icon":null,"show_icon":"","details":"","toggleSym1":"","typeDiscrib":"Sponsor","id":"40","name":"Patagonia","size":"10'x20'","type":"Sponsor","expired":null,"rotate":null,"left_panel":null},"geometry":{"type":"Point","coordinates":[-122.3862517,47.668665505148994]}},{"type":"Feature","properties":{"show_label":"","active":"","toggleSymb":"","icon":null,"show_icon":"","details":"","toggleSym1":"","typeDiscrib":"Sponsor","id":"41","name":"Market Street Shoes","size":"10'x10","type":"Sponsor","expired":null,"rotate":null,"left_panel":null},"geometry":{"type":"Point","coordinates":[-122.386101199999985,47.66872183]}},{"type":"Feature","properties":{"show_label":"","active":"","toggleSymb":"","icon":null,"show_icon":"","details":"","toggleSym1":"","typeDiscrib":"Baby goods","id":"42","name":"Original Baby Bundle / Mixed Metals","size":"10'x20'","type":"A/C","expired":null,"rotate":null,"left_panel":null},"geometry":{"type":"Point","coordinates":[-122.386101199999985,47.668665075148994]}},{"type":"Feature","properties":{"show_label":"","active":"","toggleSymb":"","icon":null,"show_icon":"","details":"","toggleSym1":"","typeDiscrib":"Jewelry","id":"43","name":"Amora Piedra","size":"10'x10","type":"A/C","expired":null,"rotate":null,"left_panel":null},"geometry":{"type":"Point","coordinates":[-122.386071799999968,47.66872208]}},{"type":"Feature","properties":{"show_label":"","active":"","toggleSymb":"","icon":null,"show_icon":"","details":"","toggleSym1":"","typeDiscrib":"Baby goods","id":"44","name":"Original Baby Bundle / Mixed Metals","size":"10'x20'","type":"A/C","expired":null,"rotate":null,"left_panel":null},"geometry":{"type":"Point","coordinates":[-122.386072300000023,47.668665075148994]}},{"type":"Feature","properties":{"show_label":"","active":"","toggleSymb":"","icon":null,"show_icon":"","details":"","toggleSym1":"","typeDiscrib":"Ceramic art","id":"45","name":"Kelsey Melville","size":"10'x10","type":"A/C","expired":null,"rotate":null,"left_panel":null},"geometry":{"type":"Point","coordinates":[-122.3859979,47.66872225]}},{"type":"Feature","properties":{"show_label":"","active":"","toggleSymb":"","icon":null,"show_icon":"","details":"","toggleSym1":"","typeDiscrib":"Sponsor","id":"46","name":"Hubert Lemonade","size":"10'x10","type":"Sponsor","expired":null,"rotate":null,"left_panel":null},"geometry":{"type":"Point","coordinates":[-122.38599750000003,47.668665325148993]}},{"type":"Feature","properties":{"show_label":"","active":"","toggleSymb":"","icon":null,"show_icon":"","details":"","toggleSym1":"","typeDiscrib":"Sponsor","id":"47","name":"Lasik Vision","size":"10'x10","type":"Sponsor","expired":null,"rotate":null,"left_panel":null},"geometry":{"type":"Point","coordinates":[-122.385968,47.66872208]}},{"type":"Feature","properties":{"show_label":"","active":"","toggleSymb":"","icon":null,"show_icon":"","details":"","toggleSym1":"","typeDiscrib":"Paper art","id":"48","name":"Linda McClamrock Recycled Paper Collage","size":"10'x10","type":"A/C","expired":null,"rotate":null,"left_panel":null},"geometry":{"type":"Point","coordinates":[-122.385968,47.668665325148993]}},{"type":"Feature","properties":{"show_label":"","active":"","toggleSymb":"","icon":null,"show_icon":"","details":"","toggleSym1":"","typeDiscrib":"Jewelry","id":"49","name":"Semilla Designs","size":"10'x10","type":"A/C","expired":null,"rotate":null,"left_panel":null},"geometry":{"type":"Point","coordinates":[-122.385883700000022,47.66872208]}},{"type":"Feature","properties":{"show_label":"","active":"","toggleSymb":"","icon":null,"show_icon":"","details":"","toggleSym1":"","typeDiscrib":"Metal art","id":"50","name":"Freeborn Metal Art","size":"10'x20'","type":"A/C","expired":null,"rotate":null,"left_panel":null},"geometry":{"type":"Point","coordinates":[-122.3858828,47.668665265148995]}},{"type":"Feature","properties":{"show_label":"","active":"","toggleSymb":"","icon":null,"show_icon":"","details":"","toggleSym1":"","typeDiscrib":"Jewelry","id":"51","name":"Pearls by Nature","size":"10'x10","type":"A/C","expired":null,"rotate":null,"left_panel":null},"geometry":{"type":"Point","coordinates":[-122.3858535,47.66872183]}},{"type":"Feature","properties":{"show_label":"","active":"","toggleSymb":"","icon":null,"show_icon":"","details":"","toggleSym1":"","typeDiscrib":"Metal art","id":"52","name":"Freeborn Metal Art","size":"10'x20'","type":"A/C","expired":null,"rotate":null,"left_panel":null},"geometry":{"type":"Point","coordinates":[-122.3858535,47.668665505148994]}},{"type":"Feature","properties":{"show_label":"","active":"","toggleSymb":"","icon":null,"show_icon":"","details":"","toggleSym1":"","typeDiscrib":"Wooden baskets","id":"53","name":"Amazing Wood Baskets","size":"10'x10","type":"A/C","expired":null,"rotate":null,"left_panel":null},"geometry":{"type":"Point","coordinates":[-122.385775700000011,47.66872208]}},{"type":"Feature","properties":{"show_label":"","active":"","toggleSymb":"","icon":null,"show_icon":"","details":"","toggleSym1":"","typeDiscrib":"Sponsor","id":"54","name":"Reach Now","size":"10'x10","type":"Sponsor","expired":null,"rotate":null,"left_panel":null},"geometry":{"type":"Point","coordinates":[-122.385775700000011,47.668665325148993]}},{"type":"Feature","properties":{"show_label":"","active":"","toggleSymb":"","icon":null,"show_icon":"","details":"","toggleSym1":"","typeDiscrib":"Jewelry","id":"55","name":"Andrea Designs","size":"10'x10","type":"A/C","expired":null,"rotate":null,"left_panel":null},"geometry":{"type":"Point","coordinates":[-122.3857463,47.66872233]}},{"type":"Feature","properties":{"show_label":"","active":"","toggleSymb":"","icon":null,"show_icon":"","details":"","toggleSym1":"","typeDiscrib":"Sponsor","id":"56","name":"Fit 36","size":"10'x10","type":"Sponsor","expired":null,"rotate":null,"left_panel":null},"geometry":{"type":"Point","coordinates":[-122.385746199999971,47.668665735148998]}},{"type":"Feature","properties":{"show_label":"","active":"","toggleSymb":"","icon":null,"show_icon":"","details":"","toggleSym1":"","typeDiscrib":"Mustards","id":"57","name":"Mustard & Co.","size":"10'x10","type":"A/C","expired":null,"rotate":null,"left_panel":null},"geometry":{"type":"Point","coordinates":[-122.3856661,47.6687224]}},{"type":"Feature","properties":{"show_label":"","active":"","toggleSymb":"","icon":null,"show_icon":"","details":"","toggleSym1":"","typeDiscrib":"Sponsor","id":"58","name":"Alaska USA Federal Credit Union","size":"10'x10","type":"Sponsor","expired":null,"rotate":null,"left_panel":null},"geometry":{"type":"Point","coordinates":[-122.3856661,47.668665645148998]}},{"type":"Feature","properties":{"show_label":"","active":"","toggleSymb":"","icon":null,"show_icon":"","details":"","toggleSym1":"","typeDiscrib":"Plush toys","id":"59","name":"Zoms","size":"10'x10","type":"A/C","expired":null,"rotate":null,"left_panel":null},"geometry":{"type":"Point","coordinates":[-122.38563670000002,47.66872341]}},{"type":"Feature","properties":{"show_label":"","active":"","toggleSymb":"","icon":null,"show_icon":"","details":"","toggleSym1":"","typeDiscrib":"Wooden art","id":"60","name":"Languid Decadence Artworks","size":"10'x10","type":"A/C","expired":null,"rotate":null,"left_panel":null},"geometry":{"type":"Point","coordinates":[-122.38563670000002,47.668665895148997]}},{"type":"Feature","properties":{"show_label":"","active":"","toggleSymb":"","icon":null,"show_icon":"","details":"","toggleSym1":"","typeDiscrib":"Handbags and leather goods","id":"61","name":"Huaracha Studios","size":"10'x10","type":"A/C","expired":null,"rotate":null,"left_panel":null},"geometry":{"type":"Point","coordinates":[-122.385556599999973,47.66872326]}},{"type":"Feature","properties":{"show_label":"","active":"","toggleSymb":"","icon":null,"show_icon":"","details":"","toggleSym1":"","typeDiscrib":"Jewelry","id":"62","name":"Seciwa's SW Native Jewelry & Crafts","size":"10'x10","type":"A/C","expired":null,"rotate":null,"left_panel":null},"geometry":{"type":"Point","coordinates":[-122.3855562,47.668666725148995]}},{"type":"Feature","properties":{"show_label":"","active":"","toggleSymb":"","icon":null,"show_icon":"","details":"","toggleSym1":"","typeDiscrib":"Seafood condiments and samples","id":"63","name":"Seattle Artisan Foods","size":"10'x10","type":"A/C","expired":null,"rotate":null,"left_panel":null},"geometry":{"type":"Point","coordinates":[-122.385526700000014,47.6687231]}},{"type":"Feature","properties":{"show_label":"","active":"","toggleSymb":"","icon":null,"show_icon":"","details":"","toggleSym1":"","typeDiscrib":"Candles","id":"64","name":"KlapNKlip Candles","size":"10'x10","type":"A/C","expired":null,"rotate":null,"left_panel":null},"geometry":{"type":"Point","coordinates":[-122.385526700000014,47.668667175148997]}},{"type":"Feature","properties":{"show_label":"","active":"","toggleSymb":"","icon":null,"show_icon":"","details":"","toggleSym1":"","typeDiscrib":"Non-profit union group","id":"65","name":"UFCW 21","size":"10'x10","type":"A/C","expired":null,"rotate":null,"left_panel":null},"geometry":{"type":"Point","coordinates":[-122.385451699999976,47.66872269]}},{"type":"Feature","properties":{"show_label":"","active":"","toggleSymb":"","icon":null,"show_icon":"","details":"","toggleSym1":"","typeDiscrib":"Clothing","id":"66","name":"MA Graphics","size":"10'x20'","type":"A/C","expired":null,"rotate":null,"left_panel":null},"geometry":{"type":"Point","coordinates":[-122.38545160000001,47.668666035148995]}},{"type":"Feature","properties":{"show_label":"","active":"","toggleSymb":"","icon":null,"show_icon":"","details":"","toggleSym1":"","typeDiscrib":"Travel accessories","id":"67","name":"Jeri-Oh's Travel Accessories","size":"10'x10","type":"A/C","expired":null,"rotate":null,"left_panel":null},"geometry":{"type":"Point","coordinates":[-122.3854222,47.66872261]}},{"type":"Feature","properties":{"show_label":"","active":"","toggleSymb":"","icon":null,"show_icon":"","details":"","toggleSym1":"","typeDiscrib":"Clothing","id":"68","name":"MA Graphics","size":"10'x20'","type":"A/C","expired":null,"rotate":null,"left_panel":null},"geometry":{"type":"Point","coordinates":[-122.3854222,47.668666285148994]}},{"type":"Feature","properties":{"show_label":"","active":"","toggleSymb":"","icon":null,"show_icon":"","details":"","toggleSym1":"","typeDiscrib":"40' Metro Bus","id":"69","name":"King Co. Metro","size":"10'x10","type":"Sponsor","expired":null,"rotate":null,"left_panel":null},"geometry":{"type":"Point","coordinates":[-122.3853461,47.66872247]}},{"type":"Feature","properties":{"show_label":"","active":"","toggleSymb":"","icon":null,"show_icon":"","details":"","toggleSym1":"","typeDiscrib":"Paintings","id":"70","name":"Tim Wistrom Fine Art Paintings","size":"10'x20'","type":"A/C","expired":null,"rotate":null,"left_panel":null},"geometry":{"type":"Point","coordinates":[-122.385345499999971,47.668666535148994]}},{"type":"Feature","properties":{"show_label":"","active":"","toggleSymb":"","icon":null,"show_icon":"","details":"","toggleSym1":"","typeDiscrib":"40' Metro Bus","id":"71","name":"King Co. Metro","size":"10'x10","type":"Sponsor","expired":null,"rotate":null,"left_panel":null},"geometry":{"type":"Point","coordinates":[-122.3853163,47.6687231]}},{"type":"Feature","properties":{"show_label":"","active":"","toggleSymb":"","icon":null,"show_icon":"","details":"","toggleSym1":"","typeDiscrib":"Paintings","id":"72","name":"Tim Wistrom Fine Art Paintings","size":"10'x20'","type":"A/C","expired":null,"rotate":null,"left_panel":null},"geometry":{"type":"Point","coordinates":[-122.3853171,47.668666535148994]}},{"type":"Feature","properties":{"show_label":"","active":"","toggleSymb":"","icon":null,"show_icon":"","details":"","toggleSym1":"","typeDiscrib":"Wood working","id":"73","name":"Forest Life Creations","size":"10'x10","type":"A/C","expired":null,"rotate":null,"left_panel":null},"geometry":{"type":"Point","coordinates":[-122.3852336,47.66872247]}},{"type":"Feature","properties":{"show_label":"","active":"","toggleSymb":"","icon":null,"show_icon":"","details":"","toggleSym1":"","typeDiscrib":"Balsalmic and olive oils","id":"74","name":"Celia's Gourmet Foods","size":"10'x10","type":"A/C","expired":null,"rotate":null,"left_panel":null},"geometry":{"type":"Point","coordinates":[-122.3852331,47.668665645148998]}},{"type":"Feature","properties":{"show_label":"","active":"","toggleSymb":"","icon":null,"show_icon":"","details":"","toggleSym1":"","typeDiscrib":"Clothing","id":"75","name":"Pure Intent","size":"10'x10","type":"A/C","expired":null,"rotate":null,"left_panel":null},"geometry":{"type":"Point","coordinates":[-122.385203700000034,47.66872222]}},{"type":"Feature","properties":{"show_label":"","active":"","toggleSymb":"","icon":null,"show_icon":"","details":"","toggleSym1":"","typeDiscrib":"Cermaics","id":"76","name":"Cascadia Stoneware","size":"10'x10","type":"A/C","expired":null,"rotate":null,"left_panel":null},"geometry":{"type":"Point","coordinates":[-122.385203700000034,47.668665895148997]}},{"type":"Feature","properties":{"show_label":"","active":"","toggleSymb":"","icon":null,"show_icon":"","details":"","toggleSym1":"","typeDiscrib":"Baked goods mixes","id":"77","name":"Papa Ray's Market Place","size":"10'x10","type":"A/C","expired":null,"rotate":null,"left_panel":null},"geometry":{"type":"Point","coordinates":[-122.385126500000013,47.66872247]}},{"type":"Feature","properties":{"show_label":"","active":"","toggleSymb":"","icon":null,"show_icon":"","details":"","toggleSym1":"","typeDiscrib":"Art prints","id":"78","name":"Powerslide Design Co.","size":"10'x10","type":"A/C","expired":null,"rotate":null,"left_panel":null},"geometry":{"type":"Point","coordinates":[-122.385126500000013,47.668666125148995]}},{"type":"Feature","properties":{"show_label":"","active":"","toggleSymb":"","icon":null,"show_icon":"","details":"","toggleSym1":"","typeDiscrib":"Hot sauces","id":"79","name":"Ballyhoo Hot Sauce","size":"10'x10","type":"A/C","expired":null,"rotate":null,"left_panel":null},"geometry":{"type":"Point","coordinates":[-122.385097200000018,47.66872189]}},{"type":"Feature","properties":{"show_label":"","active":"","toggleSymb":"","icon":null,"show_icon":"","details":"","toggleSym1":"","typeDiscrib":"Handbags  ","id":"80","name":"Metamorphic","size":"10'x10","type":"A/C","expired":null,"rotate":null,"left_panel":null},"geometry":{"type":"Point","coordinates":[-122.385097,47.668665715148997]}},{"type":"Feature","properties":{"show_label":"","active":"","toggleSymb":"","icon":null,"show_icon":"","details":"","toggleSym1":"","typeDiscrib":"Plants","id":"81","name":"Terraria","size":"10'x10","type":"A/C","expired":null,"rotate":null,"left_panel":null},"geometry":{"type":"Point","coordinates":[-122.385019699999987,47.66872287]}},{"type":"Feature","properties":{"show_label":"","active":"","toggleSymb":"","icon":null,"show_icon":"","details":"","toggleSym1":"","typeDiscrib":"Sponsor","id":"82","name":"New Seasons","size":"10'x10","type":"Sponsor","expired":null,"rotate":null,"left_panel":null},"geometry":{"type":"Point","coordinates":[-122.385019699999987,47.668666425148999]}},{"type":"Feature","properties":{"show_label":"","active":"","toggleSymb":"","icon":null,"show_icon":"","details":"","toggleSym1":"","typeDiscrib":"Sponsor","id":"83","name":"Full Circle","size":"10'x10","type":"Sponsor","expired":null,"rotate":null,"left_panel":null},"geometry":{"type":"Point","coordinates":[-122.3849904,47.66872299]}},{"type":"Feature","properties":{"show_label":"","active":"","toggleSymb":"","icon":null,"show_icon":"","details":"","toggleSym1":"","typeDiscrib":"Comics and art","id":"84","name":"Grumpy Old Man's Comics","size":"10'x10","type":"A/C","expired":null,"rotate":null,"left_panel":null},"geometry":{"type":"Point","coordinates":[-122.3849904,47.668666665148997]}},{"type":"Feature","properties":{"show_label":"","active":"","toggleSymb":"","icon":null,"show_icon":"","details":"","toggleSym1":"","typeDiscrib":"Sponsor","id":"85","name":"UW Medicine","size":"10'x10","type":"Sponsor","expired":null,"rotate":null,"left_panel":null},"geometry":{"type":"Point","coordinates":[-122.38493840000001,47.66871313]}},{"type":"Feature","properties":{"show_label":"","active":"","toggleSymb":"","icon":null,"show_icon":"","details":"","toggleSym1":"","typeDiscrib":"Sponsor","id":"86","name":"Gravity Payments","size":"10'x20'","type":"Sponsor","expired":null,"rotate":null,"left_panel":null},"geometry":{"type":"Point","coordinates":[-122.384837541563797,47.668604149864663]}},{"type":"Feature","properties":{"show_label":"","active":"","toggleSymb":"","icon":"svg_crab","show_icon":"","details":"","toggleSym1":"","typeDiscrib":"Crabs and shellfish","id":"87","name":"Seafood Shack","size":"10'x20'","type":"Food","expired":null,"rotate":null,"left_panel":null},"geometry":{"type":"Point","coordinates":[-122.384808,47.66849997]}},{"type":"Feature","properties":{"show_label":"","active":"","toggleSymb":"","icon":null,"show_icon":"","details":"","toggleSym1":"","typeDiscrib":"N/A","id":"88","name":"Reefer Trail for Shilshell","size":"10'x20'","type":"Food","expired":null,"rotate":null,"left_panel":null},"geometry":{"type":"Point","coordinates":[-122.384807300000034,47.66845364]}},{"type":"Feature","properties":{"show_label":"","active":"","toggleSymb":"","icon":null,"show_icon":"","details":"","toggleSym1":"","typeDiscrib":"Ice cream  ","id":"89","name":"Island Creamery Concessions","size":"10'x20'","type":"Food","expired":null,"rotate":null,"left_panel":null},"geometry":{"type":"Point","coordinates":[-122.384807799999976,47.66840663]}},{"type":"Feature","properties":{"show_label":"","active":"","toggleSymb":"","icon":null,"show_icon":"","details":"","toggleSym1":"","typeDiscrib":"Funnel Cakes","id":"90","name":"Sequim Valley","size":"10'x20'","type":"Food","expired":null,"rotate":null,"left_panel":null},"geometry":{"type":"Point","coordinates":[-122.384807499999965,47.66836161]}},{"type":"Feature","properties":{"show_label":"","active":"","toggleSymb":"","icon":null,"show_icon":"","details":"","toggleSym1":"","typeDiscrib":"Mini donuts","id":"91","name":"Scouts Mini Donuts","size":"10'x10'","type":"Food","expired":null,"rotate":null,"left_panel":null},"geometry":{"type":"Point","coordinates":[-122.3848084,47.66832105]}},{"type":"Feature","properties":{"show_label":"","active":"","toggleSymb":"","icon":null,"show_icon":"","details":"","toggleSym1":"","typeDiscrib":"Espresso","id":"92","name":"Egyptian Mug Coffee","size":"10'x10'","type":"Food","expired":null,"rotate":null,"left_panel":null},"geometry":{"type":"Point","coordinates":[-122.384807200000012,47.66828559]}},{"type":"Feature","properties":{"show_label":"","active":"","toggleSymb":"","icon":null,"show_icon":"","details":"","toggleSym1":"","typeDiscrib":"Sponsor","id":"93","name":"Carter Subaru","size":"10'x10'","type":"Sponsor","expired":null,"rotate":null,"left_panel":null},"geometry":{"type":"Point","coordinates":[-122.3848079,47.66824589]}},{"type":"Feature","properties":{"show_label":"","active":"","toggleSymb":"","icon":null,"show_icon":"","details":"","toggleSym1":"","typeDiscrib":"Sponsor","id":"94","name":"Carter Subaru Car","size":"Car","type":"Sponsor","expired":null,"rotate":null,"left_panel":null},"geometry":{"type":"Point","coordinates":[-122.384807,47.66820838]}},{"type":"Feature","properties":{"show_label":"","active":"","toggleSymb":"","icon":null,"show_icon":"","details":"","toggleSym1":"","typeDiscrib":"Sponsor","id":"95","name":"Ken's Food","size":"10'x20'","type":"Sponsor","expired":null,"rotate":null,"left_panel":null},"geometry":{"type":"Point","coordinates":[-122.384699299999966,47.66814357]}},{"type":"Feature","properties":{"show_label":"","active":"","toggleSymb":"","icon":null,"show_icon":"","details":"","toggleSym1":"","typeDiscrib":"Sponsor","id":"96","name":"Ballard Vox","size":"10'x10'","type":"Sponsor","expired":null,"rotate":null,"left_panel":null},"geometry":{"type":"Point","coordinates":[-122.3846987,47.66817639]}},{"type":"Feature","properties":{"show_label":"","active":"","toggleSymb":"","icon":null,"show_icon":"","details":"","toggleSym1":"","typeDiscrib":"Organic drinks","id":"97","name":"Tiny's Organics","size":"10'x10'","type":"Food","expired":null,"rotate":null,"left_panel":null},"geometry":{"type":"Point","coordinates":[-122.3846987,47.66821044]}},{"type":"Feature","properties":{"show_label":"","active":"","toggleSymb":"","icon":null,"show_icon":"","details":"","toggleSym1":"","typeDiscrib":"Ice cream canes","id":"98","name":"Ibajella Ice Cream","size":"10'x10'","type":"Food","expired":null,"rotate":null,"left_panel":null},"geometry":{"type":"Point","coordinates":[-122.384698800000024,47.66824528]}},{"type":"Feature","properties":{"show_label":"","active":"","toggleSymb":"","icon":null,"show_icon":"","details":"","toggleSym1":"","typeDiscrib":"Liquid nitrogen cereal","id":"99","name":"Stizzy Works Dragons Breath","size":"10'x10'","type":"Food","expired":null,"rotate":null,"left_panel":null},"geometry":{"type":"Point","coordinates":[-122.384698,47.66827713]}},{"type":"Feature","properties":{"show_label":"","active":"","toggleSymb":"","icon":null,"show_icon":"","details":"","toggleSym1":"","typeDiscrib":"Popsickles","id":"100","name":"Seattle Pops","size":"10'x10'","type":"Food","expired":null,"rotate":null,"left_panel":null},"geometry":{"type":"Point","coordinates":[-122.384696599999984,47.66830657]}},{"type":"Feature","properties":{"show_label":"","active":"","toggleSymb":"","icon":null,"show_icon":"","details":"","toggleSym1":"","typeDiscrib":"Sweet treats","id":"101","name":"PB Goodness","size":"10'x10'","type":"Food","expired":null,"rotate":null,"left_panel":null},"geometry":{"type":"Point","coordinates":[-122.3846969,47.66833827]}},{"type":"Feature","properties":{"show_label":"","active":"","toggleSymb":"","icon":null,"show_icon":"","details":"","toggleSym1":"","typeDiscrib":"Ice cream","id":"102","name":"Puffle Up","size":"10'x15'","type":"Food","expired":null,"rotate":null,"left_panel":null},"geometry":{"type":"Point","coordinates":[-122.384696,47.66836751]}},{"type":"Feature","properties":{"show_label":"","active":"","toggleSymb":"","icon":null,"show_icon":"","details":"","toggleSym1":"","typeDiscrib":"Sponsor","id":"103","name":"James Bay Distillers","size":"10'x10'","type":"Sponsor","expired":null,"rotate":null,"left_panel":null},"geometry":{"type":"Point","coordinates":[-122.384697099999983,47.66839299]}},{"type":"Feature","properties":{"show_label":"","active":"","toggleSymb":"","icon":null,"show_icon":"","details":"","toggleSym1":"","typeDiscrib":"Sponsor","id":"104","name":"Green Solutions Heating and Cooling","size":"10'x20'","type":"Sponsor","expired":null,"rotate":null,"left_panel":null},"geometry":{"type":"Point","coordinates":[-122.384697800000026,47.66841659]}},{"type":"Feature","properties":{"show_label":"","active":"","toggleSymb":"","icon":null,"show_icon":"","details":"","toggleSym1":"","typeDiscrib":"Crabs and shellfish","id":"105","name":"Crab Lounge","size":"10'x20'","type":"Food","expired":null,"rotate":null,"left_panel":null},"geometry":{"type":"Point","coordinates":[-122.384699,47.66845242]}},{"type":"Feature","properties":{"show_label":"","active":"","toggleSymb":"","icon":null,"show_icon":"","details":"","toggleSym1":"","typeDiscrib":"Sponsor","id":"106","name":"Columbia Bank","size":"10'x20'","type":"Sponsor","expired":null,"rotate":null,"left_panel":null},"geometry":{"type":"Point","coordinates":[-122.3846962,47.66850012]}},{"type":"Feature","properties":{"show_label":"","active":"","toggleSymb":"","icon":null,"show_icon":"","details":"","toggleSym1":"","typeDiscrib":"Strawberry shortcakes","id":"107","name":"Biringer Farms","size":"10'x10'","type":"Food","expired":null,"rotate":null,"left_panel":null},"geometry":{"type":"Point","coordinates":[-122.3846352,47.66859312]}},{"type":"Feature","properties":{"show_label":"","active":"","toggleSymb":"","icon":null,"show_icon":"","details":"","toggleSym1":"","typeDiscrib":"Popcorn","id":"108","name":"Miss Hannah's Popcorn","size":"10'x10'","type":"Food","expired":null,"rotate":null,"left_panel":null},"geometry":{"type":"Point","coordinates":[-122.384542899999985,47.66859146]}},{"type":"Feature","properties":{"show_label":"","active":"","toggleSymb":"","icon":null,"show_icon":"","details":"","toggleSym1":"","typeDiscrib":"Scallops","id":"109","name":"Alaskan Weathervane Scallops","size":"10'x40'","type":"Food","expired":null,"rotate":null,"left_panel":null},"geometry":{"type":"Point","coordinates":[-122.3843617,47.66849572]}},{"type":"Feature","properties":{"show_label":"","active":"","toggleSymb":"","icon":null,"show_icon":"","details":"","toggleSym1":"","typeDiscrib":"Paella","id":"110","name":"Paella House","size":"10'x20'","type":"Food","expired":null,"rotate":null,"left_panel":null},"geometry":{"type":"Point","coordinates":[-122.384286700000018,47.66843271]}},{"type":"Feature","properties":{"show_label":"","active":"","toggleSymb":"","icon":null,"show_icon":"","details":"","toggleSym1":"","typeDiscrib":"Piroshys","id":"111","name":"Kaleenka Piroshky","size":"10'x25'","type":"Food","expired":null,"rotate":null,"left_panel":null},"geometry":{"type":"Point","coordinates":[-122.3842244,47.66838168]}},{"type":"Feature","properties":{"show_label":"","active":"","toggleSymb":"","icon":null,"show_icon":"","details":"","toggleSym1":"","typeDiscrib":"Sponsor","id":"112","name":"Mud Bay","size":"10'x10'","type":"Sponsor","expired":null,"rotate":null,"left_panel":null},"geometry":{"type":"Point","coordinates":[-122.384120600000017,47.66828637]}},{"type":"Feature","properties":{"show_label":"","active":"","toggleSymb":"","icon":null,"show_icon":"","details":"","toggleSym1":"","typeDiscrib":"Hot sauces","id":"113","name":"Secret Aardvark","size":"10'x10'","type":"A/C","expired":null,"rotate":null,"left_panel":null},"geometry":{"type":"Point","coordinates":[-122.384091600000033,47.66826162]}},{"type":"Feature","properties":{"show_label":"","active":"","toggleSymb":"","icon":null,"show_icon":"","details":"","toggleSym1":"","typeDiscrib":"Fudge","id":"114","name":"Mr. Fudge","size":"10'x10'","type":"A/C","expired":null,"rotate":null,"left_panel":null},"geometry":{"type":"Point","coordinates":[-122.384056699999974,47.66823192]}},{"type":"Feature","properties":{"show_label":"","active":"","toggleSymb":"","icon":null,"show_icon":"","details":"","toggleSym1":"","typeDiscrib":"Jerky","id":"115","name":"Friday Harbor Jerky","size":"10'x10'","type":"A/C","expired":null,"rotate":null,"left_panel":null},"geometry":{"type":"Point","coordinates":[-122.3840214,47.66820611]}},{"type":"Feature","properties":{"show_label":"","active":"","toggleSymb":"","icon":null,"show_icon":"","details":"","toggleSym1":"","typeDiscrib":"Non-profit children care organization","id":"116","name":"Westside Baby","size":"10'x10'","type":"A/C","expired":null,"rotate":null,"left_panel":null},"geometry":{"type":"Point","coordinates":[-122.383986600000014,47.66818133]}},{"type":"Feature","properties":{"show_label":"","active":"","toggleSymb":"","icon":null,"show_icon":"","details":"","toggleSym1":"","typeDiscrib":"Cards and paper products","id":"117","name":"Pike Street Press","size":"10'x10'","type":"A/C","expired":null,"rotate":null,"left_panel":null},"geometry":{"type":"Point","coordinates":[-122.383956800000021,47.66815657]}},{"type":"Feature","properties":{"show_label":"","active":"","toggleSymb":"","icon":null,"show_icon":"","details":"","toggleSym1":"","typeDiscrib":"Sketch art","id":"118","name":"Sketches by the Sea","size":"10'x10'","type":"A/C","expired":null,"rotate":null,"left_panel":null},"geometry":{"type":"Point","coordinates":[-122.383924,47.66813171]}},{"type":"Feature","properties":{"show_label":"","active":"","toggleSymb":"","icon":null,"show_icon":"","details":"","toggleSym1":"","typeDiscrib":"Rock climbing wall","id":"120","name":"Fix Enterprises Rock Wall","size":"25' x 45' ","type":"Amusement","expired":null,"rotate":null,"left_panel":null},"geometry":{"type":"Point","coordinates":[-122.3838058,47.66818666]}},{"type":"Feature","properties":{"show_label":"","active":"","toggleSymb":"","icon":null,"show_icon":"","details":"","toggleSym1":"","typeDiscrib":"Jewelry","id":"121","name":"Baraka Gemstones and Jewelry","size":"10'x10'","type":"A/C","expired":null,"rotate":null,"left_panel":null},"geometry":{"type":"Point","coordinates":[-122.383959300000015,47.66832077]}},{"type":"Feature","properties":{"show_label":"","active":"","toggleSymb":"","icon":null,"show_icon":"","details":"","toggleSym1":"","typeDiscrib":"Wood art","id":"122","name":"Krauskopf Works","size":"10'x10'","type":"A/C","expired":null,"rotate":null,"left_panel":null},"geometry":{"type":"Point","coordinates":[-122.383993299999986,47.66834925]}},{"type":"Feature","properties":{"show_label":"","active":"","toggleSymb":"","icon":null,"show_icon":"","details":"","toggleSym1":"","typeDiscrib":"Water protection","id":"123","name":"Seattle Public Utilities","size":"10'x10'","type":"Non-Profit","expired":null,"rotate":null,"left_panel":null},"geometry":{"type":"Point","coordinates":[-122.384028300000011,47.66837709]}},{"type":"Feature","properties":{"show_label":"","active":"","toggleSymb":"","icon":null,"show_icon":"","details":"","toggleSym1":"","typeDiscrib":"Handbags","id":"124","name":"Purses with Personality","size":"10'x10'","type":"A/C","expired":null,"rotate":null,"left_panel":null},"geometry":{"type":"Point","coordinates":[-122.384063,47.66840592]}},{"type":"Feature","properties":{"show_label":"","active":"","toggleSymb":"","icon":null,"show_icon":"","details":"","toggleSym1":"","typeDiscrib":"Cocktail mixes","id":"125","name":"Improper Goods","size":"10'x10","type":"A/C","expired":null,"rotate":null,"left_panel":null},"geometry":{"type":"Point","coordinates":[-122.384101900000019,47.66843849]}},{"type":"Feature","properties":{"show_label":"","active":"","toggleSymb":"","icon":null,"show_icon":"","details":"","toggleSym1":"","typeDiscrib":"Henna art","id":"126","name":"Mehndi Madness","size":"10'x10'","type":"A/C","expired":null,"rotate":null,"left_panel":null},"geometry":{"type":"Point","coordinates":[-122.384137,47.66847078]}},{"type":"Feature","properties":{"show_label":"","active":"","toggleSymb":"","icon":null,"show_icon":"","details":"","toggleSym1":"","typeDiscrib":"Lemonade","id":"127","name":"The Lemonade Guy","size":"10'x10'","type":"Food","expired":null,"rotate":null,"left_panel":null},"geometry":{"type":"Point","coordinates":[-122.384141399999976,47.66856881]}},{"type":"Feature","properties":{"show_label":"","active":"","toggleSymb":"","icon":null,"show_icon":"","details":"","toggleSym1":"","typeDiscrib":"Seafood","id":"128","name":"The Fork and Fin","size":"Food Truck","type":"Food","expired":null,"rotate":null,"left_panel":null},"geometry":{"type":"Point","coordinates":[-122.384094600000026,47.6686325]}},{"type":"Feature","properties":{"show_label":"","active":"","toggleSymb":"","icon":null,"show_icon":"","details":"","toggleSym1":"","typeDiscrib":"Seafood and salads","id":"129","name":"Scotty's Northwest LLC","size":"10'x10'","type":"Food","expired":null,"rotate":null,"left_panel":null},"geometry":{"type":"Point","coordinates":[-122.384041300000035,47.66863272]}},{"type":"Feature","properties":{"show_label":"","active":"","toggleSymb":"","icon":null,"show_icon":"","details":"","toggleSym1":"","typeDiscrib":"Soulfood-inspired seafood","id":"130","name":"Simply Soulful","size":"10'x10'","type":"Food","expired":null,"rotate":null,"left_panel":null},"geometry":{"type":"Point","coordinates":[-122.383964,47.66863341]}},{"type":"Feature","properties":{"show_label":"","active":"","toggleSymb":"","icon":null,"show_icon":"","details":"","toggleSym1":"","typeDiscrib":"Corn on the cob","id":"131","name":"The Corn Roasters LLC","size":"10'x10'","type":"Food","expired":null,"rotate":null,"left_panel":null},"geometry":{"type":"Point","coordinates":[-122.3839289,47.66863341]}},{"type":"Feature","properties":{"show_label":"","active":"","toggleSymb":"","icon":null,"show_icon":"","details":"","toggleSym1":"","typeDiscrib":"Asian-inspired seafood","id":"132","name":"Vong's Kitchen","size":"10'x20'","type":"Food","expired":null,"rotate":null,"left_panel":null},"geometry":{"type":"Point","coordinates":[-122.383833200000026,47.66863354]}},{"type":"Feature","properties":{"show_label":"","active":"","toggleSymb":"","icon":null,"show_icon":"","details":"","toggleSym1":"","typeDiscrib":"Americana seafood","id":"133","name":"Gather Kitchen and Bar","size":"10'x10'","type":"Food","expired":null,"rotate":null,"left_panel":null},"geometry":{"type":"Point","coordinates":[-122.3837494,47.66863272]}},{"type":"Feature","properties":{"show_label":"","active":"","toggleSymb":"","icon":null,"show_icon":"","details":"","toggleSym1":"","typeDiscrib":"Cajun burgers","id":"134","name":"Bad Albert's","size":"10'x15'","type":"Food","expired":null,"rotate":null,"left_panel":null},"geometry":{"type":"Point","coordinates":[-122.3836766,47.66863043]}},{"type":"Feature","properties":{"show_label":"","active":"","toggleSymb":"","icon":null,"show_icon":"","details":"","toggleSym1":"","typeDiscrib":"Fair foods and seafood","id":"135","name":"Irishman Enterprises","size":"10'x30'","type":"Food","expired":null,"rotate":null,"left_panel":null},"geometry":{"type":"Point","coordinates":[-122.3835712,47.66863215]}},{"type":"Feature","properties":{"show_label":"","active":"","toggleSymb":"","icon":null,"show_icon":"","details":"","toggleSym1":"","typeDiscrib":"Salmon burgers","id":"136","name":"Cousins Gourmet","size":"10'x15'","type":"Food","expired":null,"rotate":null,"left_panel":null},"geometry":{"type":"Point","coordinates":[-122.383482,47.66863285]}},{"type":"Feature","properties":{"show_label":"","active":"","toggleSymb":"","icon":null,"show_icon":"","details":"","toggleSym1":"","typeDiscrib":"Po' boys","id":"137","name":"Anthony's Concessions","size":"10'x10'","type":"Food","expired":null,"rotate":null,"left_panel":null},"geometry":{"type":"Point","coordinates":[-122.383429699999965,47.66863285]}},{"type":"Feature","properties":{"show_label":"","active":"","toggleSymb":"","icon":null,"show_icon":"","details":"","toggleSym1":"","typeDiscrib":"Sandwiches","id":"138","name":"The Doner Haus","size":"10'x10'","type":"Food","expired":null,"rotate":null,"left_panel":null},"geometry":{"type":"Point","coordinates":[-122.3833816,47.66863583]}},{"type":"Feature","properties":{"show_label":"","active":"","toggleSymb":"","icon":null,"show_icon":"","details":"","toggleSym1":"","typeDiscrib":"Seafood","id":"139","name":"Barriga Llena","size":"10'x10'","type":"Food","expired":null,"rotate":null,"left_panel":null},"geometry":{"type":"Point","coordinates":[-122.383315499999981,47.66863583]}},{"type":"Feature","properties":{"show_label":"","active":"","toggleSymb":"","icon":null,"show_icon":"","details":"","toggleSym1":"","typeDiscrib":"Hawaiian-style BBQ","id":"140","name":"Pac Island Grill Hawaiian Style BBQ","size":"10'x20'","type":"Food","expired":null,"rotate":null,"left_panel":null},"geometry":{"type":"Point","coordinates":[-122.383272199999965,47.66863235]}},{"type":"Feature","properties":{"show_label":"","active":"","toggleSymb":"","icon":null,"show_icon":"","details":"","toggleSym1":"","typeDiscrib":"Southern seafood","id":"141","name":"New Orleans Cookery","size":"10'x20'","type":"Food","expired":null,"rotate":null,"left_panel":null},"geometry":{"type":"Point","coordinates":[-122.383210500000018,47.66863179]}},{"type":"Feature","properties":{"show_label":"","active":"","toggleSymb":"","icon":null,"show_icon":"","details":"","toggleSym1":"","typeDiscrib":"Mac and cheese","id":"142","name":"Mac & Cheese WHAAAAT","size":"10'x15'","type":"Food","expired":null,"rotate":null,"left_panel":null},"geometry":{"type":"Point","coordinates":[-122.382793399999969,47.66862413]}},{"type":"Feature","properties":{"show_label":"","active":"","toggleSymb":"","icon":null,"show_icon":"","details":"","toggleSym1":"","typeDiscrib":"Chowder","id":"143","name":"Pike Place Chowder","size":"10'x20'","type":"Food","expired":null,"rotate":null,"left_panel":null},"geometry":{"type":"Point","coordinates":[-122.3827397,47.66862965]}},{"type":"Feature","properties":{"show_label":"","active":"","toggleSymb":"","icon":null,"show_icon":"","details":"","toggleSym1":"","typeDiscrib":"Corn on the cob","id":"144","name":"Kornman of Washington","size":"10'x20'","type":"Food","expired":null,"rotate":null,"left_panel":null},"geometry":{"type":"Point","coordinates":[-122.3826752,47.66863207]}},{"type":"Feature","properties":{"show_label":"","active":"","toggleSymb":"","icon":null,"show_icon":"","details":"","toggleSym1":"","typeDiscrib":"Asian-inspired seafood","id":"145","name":"Panda Dim Sum","size":"10'x20'","type":"Food","expired":null,"rotate":null,"left_panel":null},"geometry":{"type":"Point","coordinates":[-122.382592100000011,47.66863354]}},{"type":"Feature","properties":{"show_label":"","active":"","toggleSymb":"","icon":null,"show_icon":"","details":"","toggleSym1":"","typeDiscrib":"Iced Tea","id":"146","name":"Stizzy Works Iced Tea","size":"10'x10","type":"Food","expired":null,"rotate":null,"left_panel":null},"geometry":{"type":"Point","coordinates":[-122.3825218,47.66863182]}},{"type":"Feature","properties":{"show_label":"","active":"","toggleSymb":"","icon":null,"show_icon":"","details":"","toggleSym1":"","typeDiscrib":"Southern seafood","id":"147","name":"Hamhock Soulshack","size":"Food Truck","type":"Food","expired":null,"rotate":null,"left_panel":null},"geometry":{"type":"Point","coordinates":[-122.382431,47.66862965]}},{"type":"Feature","properties":{"show_label":"","active":"","toggleSymb":"","icon":null,"show_icon":"","details":"","toggleSym1":"","typeDiscrib":"Asian-inspired seafood","id":"148","name":"Carlos Catering","size":"10'x15'","type":"Food","expired":null,"rotate":null,"left_panel":null},"geometry":{"type":"Point","coordinates":[-122.382368199999974,47.66863043]}},{"type":"Feature","properties":{"show_label":"","active":"","toggleSymb":"","icon":null,"show_icon":"","details":"","toggleSym1":"","typeDiscrib":"Americana  ","id":"149","name":"Wich Came First","size":"Food Truck","type":"Food","expired":null,"rotate":null,"left_panel":null},"geometry":{"type":"Point","coordinates":[-122.3824735,47.66871448]}},{"type":"Feature","properties":{"show_label":"","active":"","toggleSymb":"","icon":null,"show_icon":"","details":"","toggleSym1":"","typeDiscrib":"Vietnamese-inspired seafood","id":"150","name":"The Lemongrass","size":"10'x10'","type":"Food","expired":null,"rotate":null,"left_panel":null},"geometry":{"type":"Point","coordinates":[-122.382589,47.66871586]}},{"type":"Feature","properties":{"show_label":"","active":"","toggleSymb":"","icon":null,"show_icon":"","details":"","toggleSym1":"","typeDiscrib":"Texas-style BBQ","id":"151","name":"C. Davis Texas BBQ","size":"Food Truck","type":"Food","expired":null,"rotate":null,"left_panel":null},"geometry":{"type":"Point","coordinates":[-122.3827015,47.66871517]}},{"type":"Feature","properties":{"show_label":"","active":"","toggleSymb":"","icon":null,"show_icon":"","details":"","toggleSym1":"","typeDiscrib":"Asian-inspired seafood","id":"152","name":"Slide Thru Food Truck","size":"Food Truck","type":"Food","expired":null,"rotate":null,"left_panel":null},"geometry":{"type":"Point","coordinates":[-122.3828077,47.66871517]}},{"type":"Feature","properties":{"show_label":"","active":"","toggleSymb":"","icon":null,"show_icon":"","details":"","toggleSym1":"","typeDiscrib":"Lemonade","id":"153","name":"Stizzy Works Lemonade","size":"10'x10'","type":"Food","expired":null,"rotate":null,"left_panel":null},"geometry":{"type":"Point","coordinates":[-122.382974200000035,47.66871317]}},{"type":"Feature","properties":{"show_label":"","active":"","toggleSymb":"","icon":null,"show_icon":"","details":"","toggleSym1":"","typeDiscrib":"Burgers","id":"154","name":"Stacks","size":"Food Truck","type":"Food","expired":null,"rotate":null,"left_panel":null},"geometry":{"type":"Point","coordinates":[-122.383048200000019,47.66871448]}},{"type":"Feature","properties":{"show_label":"","active":"","toggleSymb":"","icon":null,"show_icon":"","details":"","toggleSym1":"","typeDiscrib":"Po' boys","id":"155","name":"Where Ya At Matt","size":"Food Truck","type":"Food","expired":null,"rotate":null,"left_panel":null},"geometry":{"type":"Point","coordinates":[-122.383154,47.66871425]}},{"type":"Feature","properties":{"show_label":"","active":"","toggleSymb":"","icon":null,"show_icon":"","details":"","toggleSym1":"","typeDiscrib":"Fish and chips","id":"156","name":"Nosh","size":"Food Truck","type":"Food","expired":null,"rotate":null,"left_panel":null},"geometry":{"type":"Point","coordinates":[-122.38326330000001,47.66871315]}},{"type":"Feature","properties":{"show_label":"","active":"","toggleSymb":"","icon":null,"show_icon":"","details":"","toggleSym1":"","typeDiscrib":"Native foods","id":"157","name":"Off the Rez","size":"Food Truck","type":"Food","expired":null,"rotate":null,"left_panel":null},"geometry":{"type":"Point","coordinates":[-122.383370600000035,47.66871202]}},{"type":"Feature","properties":{"show_label":"","active":"","toggleSymb":"","icon":null,"show_icon":"","details":"","toggleSym1":"","typeDiscrib":"Acai bowls","id":"158","name":"Island Blend Acai","size":"Food Truck","type":"Food","expired":null,"rotate":null,"left_panel":null},"geometry":{"type":"Point","coordinates":[-122.3835267,47.66871205]}},{"type":"Feature","properties":{"show_label":"","active":"","toggleSymb":"","icon":null,"show_icon":"","details":"","toggleSym1":"","typeDiscrib":"Fish cake sliders","id":"159","name":"Tuk Tuk Mobile Feast","size":"Food Truck","type":"Food","expired":null,"rotate":null,"left_panel":null},"geometry":{"type":"Point","coordinates":[-122.3836341,47.66871165]}},{"type":"Feature","properties":{"show_label":"","active":"","toggleSymb":"","icon":null,"show_icon":"","details":"","toggleSym1":"","typeDiscrib":"Scandinavian-inspired seafood","id":"160","name":"Tumble Swede","size":"10'x20'","type":"Food","expired":null,"rotate":null,"left_panel":null},"geometry":{"type":"Point","coordinates":[-122.383742,47.66871326]}},{"type":"Feature","properties":{"show_label":"","active":"","toggleSymb":"","icon":null,"show_icon":"","details":"","toggleSym1":"","typeDiscrib":"Peruvian-inspired seafood","id":"161","name":"Taste of Peru","size":"10'x15'","type":"Food","expired":null,"rotate":null,"left_panel":null},"geometry":{"type":"Point","coordinates":[-122.383831,47.66871458]}},{"type":"Feature","properties":{"show_label":"","active":"","toggleSymb":"","icon":null,"show_icon":"","details":"","toggleSym1":"","typeDiscrib":"Asian-inspired seafood","id":"162","name":"Hapa Food Co.","size":"10'x40'","type":"Food","expired":null,"rotate":null,"left_panel":null},"geometry":{"type":"Point","coordinates":[-122.3840183,47.66871536]}},{"type":"Feature","properties":{"show_label":"","active":"","toggleSymb":"","icon":null,"show_icon":"","details":"","toggleSym1":"","typeDiscrib":"Bratwurst","id":"163","name":"Zieglers","size":"10'x10'","type":"Food","expired":null,"rotate":null,"left_panel":null},"geometry":{"type":"Point","coordinates":[-122.384207300000014,47.66871437]}},{"type":"Feature","properties":{"show_label":"","active":"","toggleSymb":"","icon":null,"show_icon":"","details":"","toggleSym1":"","typeDiscrib":"Cheesey goodness","id":"164","name":"Alpine Cheese Melts / Fire and Scrape","size":"10'x40'","type":"Food","expired":null,"rotate":null,"left_panel":null},"geometry":{"type":"Point","coordinates":[-122.384356700000012,47.66871614]}},{"type":"Feature","properties":{"show_label":"","active":"","toggleSymb":"","icon":null,"show_icon":"","details":"","toggleSym1":"","typeDiscrib":"Fish tacos","id":"165","name":"Truly Med","size":"10'x10'","type":"Food","expired":null,"rotate":null,"left_panel":null},"geometry":{"type":"Point","coordinates":[-122.384458100000018,47.66871561]}},{"type":"Feature","properties":{"show_label":"","active":"","toggleSymb":"","icon":null,"show_icon":"","details":"","toggleSym1":"","typeDiscrib":"Sponsor","id":"166","name":"Swedish Medical Center","size":"10'x20'","type":"Sponsor","expired":null,"rotate":null,"left_panel":null},"geometry":{"type":"Point","coordinates":[-122.38451120000002,47.66871454]}},{"type":"Feature","properties":{"show_label":"","active":"","toggleSymb":"","icon":null,"show_icon":"","details":"","toggleSym1":"","typeDiscrib":"Sponsor","id":"167","name":"Homestreet Bank Hydroplane","size":"10'x20'","type":"Sponsor","expired":null,"rotate":null,"left_panel":null},"geometry":{"type":"Point","coordinates":[-122.384493300000031,47.6674457]}},{"type":"Feature","properties":{"show_label":"","active":"","toggleSymb":"","icon":null,"show_icon":"","details":"","toggleSym1":"","typeDiscrib":"Sponsor","id":"168","name":"Homestreet Bank Booth","size":"10'x10'","type":"Sponsor","expired":null,"rotate":null,"left_panel":null},"geometry":{"type":"Point","coordinates":[-122.3844434,47.6674062]}},{"type":"Feature","properties":{"show_label":"","active":"","toggleSymb":"","icon":null,"show_icon":"","details":"","toggleSym1":"","typeDiscrib":"Girl Scouts","id":"169","name":"Girl Scout Troop 44477","size":"10'x10'","type":"Non-Profit","expired":null,"rotate":null,"left_panel":null},"geometry":{"type":"Point","coordinates":[-122.384408600000029,47.66737877]}},{"type":"Feature","properties":{"show_label":"","active":"","toggleSymb":"","icon":null,"show_icon":"","details":"","toggleSym1":"","typeDiscrib":"Children's literacy program","id":"170","name":"Page Ahead Children's Lit Program","size":"10'x10'","type":"Non-Profit","expired":null,"rotate":null,"left_panel":null},"geometry":{"type":"Point","coordinates":[-122.384371,47.66734383]}},{"type":"Feature","properties":{"show_label":"","active":"","toggleSymb":"","icon":null,"show_icon":"","details":"games","toggleSym1":"","typeDiscrib":"Cornhole game","id":"171","name":"Cornhole Station #1","size":"20'x33'","type":"Amusement","expired":null,"rotate":null,"left_panel":null},"geometry":{"type":"Point","coordinates":[-122.384289,47.66729226]}},{"type":"Feature","properties":{"show_label":"","active":"","toggleSymb":"","icon":null,"show_icon":"","details":"games","toggleSym1":"","typeDiscrib":"Ladder ball game","id":"172","name":"Ladder Ball Station","size":"10'x20'","type":"Amusement","expired":null,"rotate":null,"left_panel":null},"geometry":{"type":"Point","coordinates":[-122.3841989,47.66721047]}},{"type":"Feature","properties":{"show_label":"","active":"","toggleSymb":"","icon":null,"show_icon":"","details":"games","toggleSym1":"","typeDiscrib":"Badminton game","id":"173","name":"Verity Badminton Station","size":"10'x20'","type":"Amusement","expired":null,"rotate":null,"left_panel":null},"geometry":{"type":"Point","coordinates":[-122.384125499999982,47.6671486]}},{"type":"Feature","properties":{"show_label":"","active":"","toggleSymb":"","icon":null,"show_icon":"","details":"games","toggleSym1":"","typeDiscrib":"Giant jenga with 2x4's","id":"174","name":"Giant Jenga","size":"10'x10'","type":"Amusement","expired":null,"rotate":null,"left_panel":null},"geometry":{"type":"Point","coordinates":[-122.3840834,47.66711011]}},{"type":"Feature","properties":{"show_label":"","active":"","toggleSymb":"","icon":null,"show_icon":"","details":"games","toggleSym1":"","typeDiscrib":"Bubbles","id":"175","name":"Clover Toys Bubble Station","size":"20'x30'","type":"Amusement","expired":null,"rotate":null,"left_panel":null},"geometry":{"type":"Point","coordinates":[-122.383958800000016,47.66701575]}},{"type":"Feature","properties":{"show_label":"","active":"","toggleSymb":"","icon":null,"show_icon":"","details":"games","toggleSym1":"","typeDiscrib":"Aerial performance","id":"176","name":"Arcadia Aerial Performance","size":"20'x30'","type":"Amusement","expired":null,"rotate":null,"left_panel":null},"geometry":{"type":"Point","coordinates":[-122.3838566,47.66692712]}},{"type":"Feature","properties":{"show_label":"","active":"","toggleSymb":"","icon":null,"show_icon":"","details":"games","toggleSym1":"","typeDiscrib":"AstroTurf lounge area","id":"177","name":"AstroTurf Lounge","size":"20'x30'","type":"Amusement","expired":null,"rotate":null,"left_panel":null},"geometry":{"type":"Point","coordinates":[-122.383781,47.66685335]}},{"type":"Feature","properties":{"show_label":"","active":"","toggleSymb":"","icon":null,"show_icon":"","details":"games","toggleSym1":"","typeDiscrib":"Giant beer pong game set","id":"178","name":"Bucket Ball Game Station","size":"10'x10'","type":"Amusement","expired":null,"rotate":null,"left_panel":null},"geometry":{"type":"Point","coordinates":[-122.383740399999965,47.66681739]}},{"type":"Feature","properties":{"show_label":null,"active":null,"toggleSymb":null,"icon":null,"show_icon":null,"details":null,"toggleSym1":null,"typeDiscrib":"Research Questions Outreach","id":"119","name":"Harborview Medical Center","size":"10'x10'","type":"Non-Profit","expired":null,"rotate":null,"left_panel":null},"geometry":{"type":"Point","coordinates":[-122.383893536514449,47.66811058508344]}},{"type":"Feature","properties":{"show_label":"","active":"","toggleSymb":"","icon":null,"show_icon":"","details":"games","toggleSym1":"","typeDiscrib":"Cornhole game","id":"179","name":"Cornhole Station #2","size":"20'x33'","type":"Amusement","expired":"","rotate":null,"left_panel":null},"geometry":{"type":"Point","coordinates":[-122.383650027983151,47.666753571773647]}},{"type":"Feature","properties":{"show_label":"","active":"","toggleSymb":"","icon":null,"show_icon":"","details":"","toggleSym1":"","typeDiscrib":"Sponsor","id":"180","name":"All the Best Pet Care Shade Tent","size":"10'x10'","type":"Sponsor","expired":"","rotate":null,"left_panel":null},"geometry":{"type":"Point","coordinates":[-122.383561906839304,47.666685626643414]}},{"type":"Feature","properties":{"show_label":"","active":"","toggleSymb":"","icon":null,"show_icon":"","details":"games","toggleSym1":"","typeDiscrib":"Pools for dogs to splash in","id":"181","name":"Doggie Splash Town Pool","size":"10'x10'","type":"Amusement","expired":null,"rotate":null,"left_panel":null},"geometry":{"type":"Point","coordinates":[-122.383508267882178,47.666640903218294]}},{"type":"Feature","properties":{"show_label":"","active":"","toggleSymb":"","icon":null,"show_icon":"","details":"","toggleSym1":"","typeDiscrib":"Festi-Bowl sponsor and skateboard brand","id":"192","name":"Allez Oop","size":"10'x10'","type":"Sponsor","expired":"","rotate":null,"left_panel":null},"geometry":{"type":"Point","coordinates":[-122.38573173036724,47.670629092997345]}},{"type":"Feature","properties":{"show_label":"","active":"","toggleSymb":"","icon":"svg_WB","show_icon":"","details":"","toggleSym1":"","typeDiscrib":"Restroom facilities","id":"193.100000","name":"Honey Buckets","size":"","type":"Restroom","expired":"","rotate":null,"left_panel":null},"geometry":{"type":"Point","coordinates":[-122.385857845772478,47.670718102975087]}},{"type":"Feature","properties":{"show_label":"","active":"","toggleSymb":"","icon":"svg_WB","show_icon":"","details":"","toggleSym1":"","typeDiscrib":"Restroom facilities","id":"193.200000","name":"Honey Buckets","size":"","type":"Restroom","expired":"","rotate":null,"left_panel":null},"geometry":{"type":"Point","coordinates":[-122.385824640703731,47.670694022996088]}},{"type":"Feature","properties":{"show_label":"","active":"","toggleSymb":"","icon":null,"show_icon":"","details":"games","toggleSym1":"","typeDiscrib":"6 bounce houses","id":"194","name":"Amusement on Demand Bounce Houses","size":"","type":"Amusement","expired":"","rotate":null,"left_panel":null},"geometry":{"type":"Point","coordinates":[-122.385405745990852,47.670695742994951]}},{"type":"Feature","properties":{"show_label":"","active":"","toggleSymb":"","icon":null,"show_icon":"","details":"","toggleSym1":"","typeDiscrib":"Church booth","id":"183","name":"St. Luke's Church","size":"10'x10'","type":"Non-Profit","expired":"","rotate":null,"left_panel":null},"geometry":{"type":"Point","coordinates":[-122.384885633126601,47.670375755495101]}},{"type":"Feature","properties":{"show_label":"","active":"","toggleSymb":"","icon":null,"show_icon":"","details":"","toggleSym1":"","typeDiscrib":"Library booth","id":"184","name":"Ballard Library","size":"10'x10'","type":"Non-Profit","expired":"","rotate":null,"left_panel":null},"geometry":{"type":"Point","coordinates":[-122.384885633126544,47.670351327981891]}},{"type":"Feature","properties":{"show_label":"","active":"","toggleSymb":"","icon":null,"show_icon":"","details":"","toggleSym1":"","typeDiscrib":"Face painting","id":"185","name":"Tiny Art Face Painting","size":"10'x10'","type":"Amusement","expired":"","rotate":null,"left_panel":null},"geometry":{"type":"Point","coordinates":[-122.384885633126544,47.670323847017308]}},{"type":"Feature","properties":{"show_label":"","active":"","toggleSymb":"","icon":"svg_WB","show_icon":"","details":"","toggleSym1":"","typeDiscrib":"Restroom facilities","id":"193.300000","name":"Honey Buckets","size":"","type":"Restroom","expired":"","rotate":null,"left_panel":null},"geometry":{"type":"Point","coordinates":[-122.384890167521803,47.670465831849199]}},{"type":"Feature","properties":{"show_label":"","active":"","toggleSymb":"","icon":"svg_WB","show_icon":"","details":"","toggleSym1":"","typeDiscrib":"Restroom facilities","id":"193.400000","name":"Honey Buckets","size":"","type":"Restroom","expired":"","rotate":null,"left_panel":null},"geometry":{"type":"Point","coordinates":[-122.384890167521803,47.670433770791675]}},{"type":"Feature","properties":{"show_label":"","active":"","toggleSymb":"","icon":null,"show_icon":"","details":"games","toggleSym1":"","typeDiscrib":"Parachute game","id":"195","name":"Parachute","size":"","type":"Amusement","expired":"","rotate":null,"left_panel":null},"geometry":{"type":"Point","coordinates":[-122.385124822476428,47.670552091263325]}},{"type":"Feature","properties":{"show_label":"","active":"","toggleSymb":"","icon":null,"show_icon":"","details":"games","toggleSym1":"","typeDiscrib":"Sidewalk chalk, hula hoops, and bubbles for kids of all ages","id":"182","name":"Illumination Learning Studio","size":"","type":"Amusement","expired":"","rotate":null,"left_panel":null},"geometry":{"type":"Point","coordinates":[-122.385190571207659,47.670449801322896]}},{"type":"Feature","properties":{"show_label":"","active":"","toggleSymb":"","icon":null,"show_icon":"","details":"","toggleSym1":"","typeDiscrib":"Seattle Fire Department Truck(s)","id":"196","name":"Fire Trucks","size":"","type":"Fire Trucks","expired":"","rotate":null,"left_panel":null},"geometry":{"type":"Point","coordinates":[-122.384841422772865,47.670752090418368]}},{"type":"Feature","properties":{"show_label":"","active":"","toggleSymb":"","icon":null,"show_icon":"","details":"","toggleSym1":"","typeDiscrib":"Gelato","id":"186","name":"Nutty Squirrel Gelato","size":"10'x10'","type":"Food","expired":"","rotate":null,"left_panel":null},"geometry":{"type":"Point","coordinates":[-122.385072676930974,47.67027422856971]}},{"type":"Feature","properties":{"show_label":"","active":"","toggleSymb":"","icon":null,"show_icon":"","details":"","toggleSym1":"","typeDiscrib":"Iced teas and lemonades","id":"187","name":"Wicked Palmer","size":"10'x10'","type":"Food","expired":"","rotate":null,"left_panel":null},"geometry":{"type":"Point","coordinates":[-122.385118020883567,47.67027422856971]}},{"type":"Feature","properties":{"show_label":"","active":"","toggleSymb":"","icon":null,"show_icon":"","details":"","toggleSym1":"","typeDiscrib":"Girl Scout booth","id":"188","name":"Girl Scout Troop 40827","size":"10'x10'","type":"Non-Profit","expired":"","rotate":null,"left_panel":null},"geometry":{"type":"Point","coordinates":[-122.385224224922524,47.670272844977724]}},{"type":"Feature","properties":{"show_label":"","active":"","toggleSymb":"","icon":null,"show_icon":"","details":"","toggleSym1":"","typeDiscrib":"Boy Scout booth","id":"189","name":"Boy Scout Troop 827","size":"10'x10'","type":"Non-Profit","expired":"","rotate":null,"left_panel":null},"geometry":{"type":"Point","coordinates":[-122.385269002075688,47.670272654137463]}},{"type":"Feature","properties":{"show_label":"","active":"","toggleSymb":"","icon":null,"show_icon":"","details":"","toggleSym1":"","typeDiscrib":"Mobile Police Bus","id":"197","name":"Seattle Police Mobile Precinct Unit","size":"","type":"Police","expired":"","rotate":null,"left_panel":null},"geometry":{"type":"Point","coordinates":[-122.385676955949066,47.670188779768779]}},{"type":"Feature","properties":{"show_label":null,"active":null,"toggleSymb":null,"icon":"svg_WB","show_icon":null,"details":null,"toggleSym1":null,"typeDiscrib":"Restroom facilities","id":"193.500000","name":"Honey Buckets","size":null,"type":"Restroom","expired":null,"rotate":null,"left_panel":null},"geometry":{"type":"Point","coordinates":[-122.38533228635788,47.667780726270159]}},{"type":"Feature","properties":{"show_label":null,"active":null,"toggleSymb":null,"icon":"svg_contestEating","show_icon":null,"details":null,"toggleSym1":null,"typeDiscrib":null,"id":"5555","name":"Lutefisk Contest","size":null,"type":"Entertainment","expired":null,"rotate":null,"left_panel":true},"geometry":{"type":"Point","coordinates":[-122.384736835956573,47.668669406263234]}},{"type":"Feature","properties":{"show_label":null,"active":null,"toggleSymb":null,"icon":"svg_info","show_icon":null,"details":null,"toggleSym1":null,"typeDiscrib":null,"id":"5554","name":"SeafoodFest Info","size":null,"type":"Info Booth","expired":null,"rotate":null,"left_panel":true},"geometry":{"type":"Point","coordinates":[-122.38482803106308,47.668685662463645]}},{"type":"Feature","properties":{"show_label":null,"active":null,"toggleSymb":null,"icon":"svg_tickets","show_icon":"true","details":"info","id":"602","name":"Token sales","type":"Sponsor","left_panel":null,"typeDescri":null,"vendorSize":"10x10"},"geometry":{"type":"Point","coordinates":[-122.385906279087067,47.668376793790038]}},{"type":"Feature","properties":{"show_label":null,"active":null,"toggleSymb":null,"icon":"svg_tickets","show_icon":null,"details":null,"toggleSym1":null,"typeDiscrib":null,"id":"604","name":"Token sales","size":null,"type":"Sponsor","expired":null,"rotate":null,"left_panel":true},"geometry":{"type":"Point","coordinates":[-122.384830713272095,47.668763330906799]}},{"type":"Feature","properties":{"show_label":null,"active":null,"toggleSymb":null,"icon":"svg_tickets","show_icon":"true","details":"info","id":"603","name":"Token sales","type":"Sponsor","left_panel":null,"typeDescri":null,"vendorSize":"10x10"},"geometry":{"type":"Point","coordinates":[-122.385428845882416,47.668102242323471]}},{"type":"Feature","properties":{"show_label":"","active":"","toggleSymb":"","icon":null,"show_icon":"","details":"","toggleSym1":"","typeDiscrib":"Non-profit fraternal order organization","id":"119B","name":"Salmon Bay Eagles","size":"10'x10","type":"Non-Profit","expired":"","rotate":null,"left_panel":null},"geometry":{"type":"Point","coordinates":[-122.383864045049449,47.668089616707469]}},{"type":"Feature","properties":{"show_label":"","active":"","toggleSymb":"","icon":null,"show_icon":"","details":null,"toggleSym1":null,"typeDiscrib":null,"id":"9996","name":"VIP Area","size":null,"type":"Amusement","expired":null,"rotate":45,"left_panel":null},"geometry":{"type":"Polygon","coordinates":[[[-122.384727272674468,47.667846996745006],[-122.384781933077875,47.667846948438154],[-122.384781224716392,47.667681321358216],[-122.384937250864596,47.66778534924358],[-122.384946110567284,47.667766048839944],[-122.384734537146699,47.667619288518395],[-122.384728206725697,47.667625731472121],[-122.384727272674468,47.667846996745006]]]}},{"type":"Feature","properties":{"show_label":null,"active":null,"toggleSymb":null,"icon":null,"show_icon":null,"details":null,"toggleSym1":null,"typeDiscrib":null,"id":"9997","name":"Gravity Payments Main Stage","size":null,"type":"Amusement","expired":null,"rotate":null,"left_panel":true},"geometry":{"type":"Polygon","coordinates":[[[-122.384697597545085,47.667572260484427],[-122.384683372567736,47.667559487761586],[-122.38473197457381,47.667511057825742],[-122.384745409274615,47.667523830560441],[-122.384697597545085,47.667572260484427]]]}},{"type":"Feature","properties":{"show_label":null,"active":null,"toggleSymb":null,"icon":null,"show_icon":null,"details":null,"toggleSym1":null,"typeDiscrib":null,"id":"9998","name":"Gravity Payments Back Stage","size":null,"type":"Amusement","expired":null,"rotate":null,"left_panel":null},"geometry":{"type":"Polygon","coordinates":[[[-122.384679026046797,47.667551238698714],[-122.384664801069448,47.667538465975873],[-122.384713403075523,47.667490036040029],[-122.384726837776384,47.667502808774728],[-122.384679026046797,47.667551238698714]]]}},{"type":"Feature","properties":{"show_label":"true","active":null,"toggleSymb":null,"icon":null,"show_icon":null,"details":null,"toggleSym1":null,"typeDiscrib":null,"id":"9999","name":"Beer Garden","size":null,"type":"Amusement","expired":null,"rotate":45,"left_panel":true},"geometry":{"type":"Polygon","coordinates":[[[-122.385827873946084,47.668363909742837],[-122.384946110432054,47.667766048531135],[-122.384937249649283,47.667785348606571],[-122.384781223618347,47.667681321048114],[-122.384781936097738,47.667846933841325],[-122.384727242228337,47.667846997641938],[-122.384728202838232,47.667625716296229],[-122.384797631398669,47.667555325463674],[-122.385878144208959,47.668282857170261],[-122.385827873946084,47.668363909742837]]]}},{"type":"Feature","properties":{"show_label":"true","active":"false","toggleSymb":"keyboard_arrow_up","icon":null,"show_icon":"false","details":null,"toggleSym1":null,"typeDiscrib":null,"id":"301","name":"Trident Seafoods Alder-smoked Salmon","size":null,"type":"Food","expired":null,"rotate":90,"left_panel":true},"geometry":{"type":"Polygon","coordinates":[[[-122.384792836793736,47.66880002347348],[-122.384888447465244,47.66880033344038],[-122.384889386073837,47.669369768921115],[-122.384792628462492,47.669369582790708],[-122.384792836793736,47.66880002347348]]]}},{"type":"Feature","properties":{"show_label":"true","active":"false","toggleSymb":"keyboard_arrow_up","icon":null,"show_icon":null,"details":null,"toggleSym1":null,"typeDiscrib":null,"id":"344","name":"Big Purple Slide","size":null,"type":"Amusement","expired":null,"rotate":null,"left_panel":true},"geometry":{"type":"Polygon","coordinates":[[[-122.384810789823348,47.669834511622177],[-122.384812104853381,47.669554500029442],[-122.384884697284974,47.669554537365734],[-122.38488338207253,47.669833027244451],[-122.384810789823348,47.669834511622177]]]}},{"type":"Feature","properties":{"show_label":"true","active":"false","toggleSymb":"keyboard_arrow_up","icon":null,"show_icon":null,"details":null,"toggleSym1":null,"typeDiscrib":null,"id":"349","name":"Game Plank","size":null,"type":"Amusement","expired":null,"rotate":50,"left_panel":true},"geometry":{"type":"Polygon","coordinates":[[[-122.384626117203823,47.667486169917822],[-122.38458489563476,47.667509557108076],[-122.3831346781825,47.666331603977319],[-122.38317710242336,47.666309152091117],[-122.384626117203823,47.667486169917822]]]}},{"type":"Feature","properties":{"show_label":"true","active":"false","toggleSymb":"keyboard_arrow_up","icon":null,"show_icon":null,"details":null,"toggleSym1":null,"typeDiscrib":null,"id":"351","name":"Kid's Deck","size":null,"type":"Amusement","expired":null,"rotate":null,"left_panel":true},"geometry":{"type":"Polygon","coordinates":[[[-122.384798366209566,47.670902551969661],[-122.38469045795074,47.670901032498598],[-122.384683961535018,47.669836143962399],[-122.384791759482596,47.669836146193639],[-122.384791078355306,47.670145632383189],[-122.385485845420931,47.670148573464978],[-122.385487119127959,47.670221171062174],[-122.384791306019906,47.670218225556383],[-122.384798366209566,47.670902551969661]]]}},{"type":"Feature","properties":{"show_label":"true","active":"false","toggleSymb":"keyboard_arrow_up","icon":null,"show_icon":null,"details":null,"toggleSym1":null,"typeDiscrib":null,"id":"191","name":"Festi-Bowl","size":null,"type":"Amusement","expired":null,"rotate":null,"left_panel":true},"geometry":{"type":"Polygon","coordinates":[[[-122.385749416332658,47.670318875744407],[-122.385788846609785,47.670404168458951],[-122.385796301487744,47.670461637501525],[-122.38578668556238,47.670488183188795],[-122.385770679829477,47.670511453006178],[-122.38571589333128,47.670556418115119],[-122.385644510889279,47.670599210498779],[-122.385497320713284,47.670523093330331],[-122.385498380083845,47.670452084396672],[-122.385526082153945,47.670410309248709],[-122.385564847256376,47.670367013179913],[-122.38561054318501,47.670315969071595],[-122.385749416332658,47.670318875744407]]]}},{"type":"Feature","properties":{"show_label":"","active":"","toggleSymb":"","icon":null,"show_icon":"","details":null,"toggleSym1":null,"typeDiscrib":null,"id":"190","name":"Kid's Deck Stage","size":null,"type":"Amusement","expired":null,"rotate":null,"left_panel":null},"geometry":{"type":"Polygon","coordinates":[[[-122.385466094913681,47.67049375176304],[-122.385547827508276,47.670377655466105],[-122.385515900713472,47.670364755861591],[-122.3854316139753,47.670481712159059],[-122.385466094913681,47.67049375176304]]]}}]}