{"type":"FeatureCollection","features":[{"type":"Feature","geometry":{"type":"Point","coordinates":[-122.38726250000002,47.66872134]},"properties":{"show_label":"","active":"","toggleSymb":"","icon":"","show_icon":"","details":"","toggleSym1":"","typeDiscrib":"Sponsor","id":1,"name":"Ofo Bikes","size":"10'x10","type":"Sponsor","expired":null,"rotate":null,"left_panel":null}},{"type":"Feature","geometry":{"type":"Point","coordinates":[-122.38726250000002,47.66870294]},"properties":{"show_label":"","active":"","toggleSymb":"","icon":"","show_icon":"","details":"","toggleSym1":"","typeDiscrib":"Jewelry","id":2,"name":"West Coast Sea Glass","size":"10'x10","type":"A/C","expired":null,"rotate":null,"left_panel":null}},{"type":"Feature","geometry":{"type":"Point","coordinates":[-122.3872341,47.66872134]},"properties":{"show_label":"","active":"","toggleSymb":"","icon":"","show_icon":"","details":"","toggleSym1":"","typeDiscrib":"Sponsor","id":3,"name":"Ofo Bikes","size":"10'x10","type":"Sponsor","expired":null,"rotate":null,"left_panel":null}},{"type":"Feature","geometry":{"type":"Point","coordinates":[-122.3872341,47.66870294]},"properties":{"show_label":"","active":"","toggleSymb":"","icon":"","show_icon":"","details":"","toggleSym1":"","typeDiscrib":"Hand-made sweaters","id":4,"name":"Sweetie Sweaters","size":"10'x10","type":"A/C","expired":null,"rotate":null,"left_panel":null}},{"type":"Feature","geometry":{"type":"Point","coordinates":[-122.38715709999997,47.66872109]},"properties":{"show_label":"","active":"","toggleSymb":"","icon":"","show_icon":"","details":"","toggleSym1":"","typeDiscrib":"Sponsor","id":5,"name":"Ofo Booth","size":"10'x10","type":"Sponsor","expired":null,"rotate":null,"left_panel":null}},{"type":"Feature","geometry":{"type":"Point","coordinates":[-122.38715739999998,47.66870182]},"properties":{"show_label":"","active":"","toggleSymb":"","icon":"","show_icon":"","details":"","toggleSym1":"","typeDiscrib":"Pyschic","id":6,"name":"The Psychic Temple","size":"10'x10","type":"A/C","expired":null,"rotate":null,"left_panel":null}},{"type":"Feature","geometry":{"type":"Point","coordinates":[-122.38712729999997,47.66872109]},"properties":{"show_label":"","active":"","toggleSymb":"","icon":"","show_icon":"","details":"","toggleSym1":"","typeDiscrib":"Jewelry","id":7,"name":"J McCormick Designs","size":"10'x10","type":"A/C","expired":null,"rotate":null,"left_panel":null}},{"type":"Feature","geometry":{"type":"Point","coordinates":[-122.38712729999997,47.66870206]},"properties":{"show_label":"","active":"","toggleSymb":"","icon":"","show_icon":"","details":"","toggleSym1":"","typeDiscrib":"Paintings","id":8,"name":"Renee Staeck","size":"10'x10","type":"A/C","expired":null,"rotate":null,"left_panel":null}},{"type":"Feature","geometry":{"type":"Point","coordinates":[-122.38704660000002,47.66872109]},"properties":{"show_label":"","active":"","toggleSymb":"","icon":"","show_icon":"","details":"","toggleSym1":"","typeDiscrib":"Non-profit emergency communications","id":9,"name":"Western Washington Medical Services Communications","size":"10'x10","type":"Non-Profit","expired":null,"rotate":null,"left_panel":null}},{"type":"Feature","geometry":{"type":"Point","coordinates":[-122.387046,47.66870199]},"properties":{"show_label":"","active":"","toggleSymb":"","icon":"","show_icon":"","details":"","toggleSym1":"","typeDiscrib":"Olive oils","id":10,"name":"Olive Branch / A Taste of Eden","size":"10'x10","type":"A/C","expired":null,"rotate":null,"left_panel":null}},{"type":"Feature","geometry":{"type":"Point","coordinates":[-122.38701659999998,47.66872134]},"properties":{"show_label":"","active":"","toggleSymb":"","icon":"","show_icon":"","details":"","toggleSym1":"","typeDiscrib":"Ethnic-inspired crafts and jewelry","id":11,"name":"ETH-YO Artifacts","size":"10'x10","type":"A/C","expired":null,"rotate":null,"left_panel":null}},{"type":"Feature","geometry":{"type":"Point","coordinates":[-122.38701659999998,47.66870224]},"properties":{"show_label":"","active":"","toggleSymb":"","icon":"","show_icon":"","details":"","toggleSym1":"","typeDiscrib":"Clothing","id":12,"name":"Sabrina Shane Co.","size":"10'x10","type":"A/C","expired":null,"rotate":null,"left_panel":null}},{"type":"Feature","geometry":{"type":"Point","coordinates":[-122.38694520000001,47.66871993]},"properties":{"show_label":"","active":"","toggleSymb":"","icon":"","show_icon":"","details":"","toggleSym1":"","typeDiscrib":"Wind spinners","id":13,"name":"NW Wind Spinners","size":"10'x10","type":"A/C","expired":null,"rotate":null,"left_panel":null}},{"type":"Feature","geometry":{"type":"Point","coordinates":[-122.38694529999998,47.66870034]},"properties":{"show_label":"","active":"","toggleSymb":"","icon":"","show_icon":"","details":"","toggleSym1":"","typeDiscrib":"Non-profit","id":14,"name":"Lupus Foundation","size":"10'x10","type":"Non-Profit","expired":null,"rotate":null,"left_panel":null}},{"type":"Feature","geometry":{"type":"Point","coordinates":[-122.38691519999998,47.66872012]},"properties":{"show_label":"","active":"","toggleSymb":"","icon":"","show_icon":"","details":"","toggleSym1":"","typeDiscrib":"Silk clothing","id":15,"name":"Silk From the Hartz","size":"10'x10","type":"A/C","expired":null,"rotate":null,"left_panel":null}},{"type":"Feature","geometry":{"type":"Point","coordinates":[-122.38691519999998,47.66870107]},"properties":{"show_label":"","active":"","toggleSymb":"","icon":"","show_icon":"","details":"","toggleSym1":"","typeDiscrib":"Bubbles","id":16,"name":"Northwest Sales","size":"10'x10","type":"A/C","expired":null,"rotate":null,"left_panel":null}},{"type":"Feature","geometry":{"type":"Point","coordinates":[-122.38683409999999,47.66872159]},"properties":{"show_label":"","active":"","toggleSymb":"","icon":"","show_icon":"","details":"","toggleSym1":"","typeDiscrib":"Wooden jewelry","id":17,"name":"Valhalla Resin Works","size":"10'x10","type":"A/C","expired":null,"rotate":null,"left_panel":null}},{"type":"Feature","geometry":{"type":"Point","coordinates":[-122.38683409999999,47.66870254]},"properties":{"show_label":"","active":"","toggleSymb":"","icon":"","show_icon":"","details":"","toggleSym1":"","typeDiscrib":"Clothing and jewelry","id":18,"name":"Wayi Bamboo","size":"10'x10","type":"A/C","expired":null,"rotate":null,"left_panel":null}},{"type":"Feature","geometry":{"type":"Point","coordinates":[-122.38680469999997,47.66872183]},"properties":{"show_label":"","active":"","toggleSymb":"","icon":"","show_icon":"","details":"","toggleSym1":"","typeDiscrib":"Alaskan Way Viaduct Replacement Program","id":19,"name":"EnviroIssues / WSDOT","size":"10'x10","type":"Non-Profit","expired":null,"rotate":null,"left_panel":null}},{"type":"Feature","geometry":{"type":"Point","coordinates":[-122.3868046,47.66870254]},"properties":{"show_label":"","active":"","toggleSymb":"","icon":"","show_icon":"","details":"","toggleSym1":"","typeDiscrib":"Caricatures","id":20,"name":"Over the Line Art","size":"10'x10","type":"A/C","expired":null,"rotate":null,"left_panel":null}},{"type":"Feature","geometry":{"type":"Point","coordinates":[-122.38672170000001,47.66872078]},"properties":{"show_label":"","active":"","toggleSymb":"","icon":"","show_icon":"","details":"","toggleSym1":"","typeDiscrib":"The West Seattle and Ballard Link Extention project","id":21,"name":"EnviroIssues / Sound Transit","size":"10'x10","type":"Non-Profit","expired":null,"rotate":null,"left_panel":null}},{"type":"Feature","geometry":{"type":"Point","coordinates":[-122.38672120000001,47.66870157]},"properties":{"show_label":"","active":"","toggleSymb":"","icon":"","show_icon":"","details":"","toggleSym1":"","typeDiscrib":"Hats","id":22,"name":"Classic Collection Hats","size":"10'x20'","type":"A/C","expired":null,"rotate":null,"left_panel":null}},{"type":"Feature","geometry":{"type":"Point","coordinates":[-122.38669170000003,47.6687206]},"properties":{"show_label":"","active":"","toggleSymb":"","icon":"","show_icon":"","details":"","toggleSym1":"","typeDiscrib":"Non-profit local radio station","id":23,"name":"KFBG 107.3 FM","size":"10'x10","type":"Non-Profit","expired":null,"rotate":null,"left_panel":null}},{"type":"Feature","geometry":{"type":"Point","coordinates":[-122.38669170000003,47.66870157]},"properties":{"show_label":"","active":"","toggleSymb":"","icon":"","show_icon":"","details":"","toggleSym1":"","typeDiscrib":"Hats","id":24,"name":"Classic Collection Hats","size":"10'x20'","type":"A/C","expired":null,"rotate":null,"left_panel":null}},{"type":"Feature","geometry":{"type":"Point","coordinates":[-122.3866099,47.66872134]},"properties":{"show_label":"","active":"","toggleSymb":"","icon":"","show_icon":"","details":"","toggleSym1":"","typeDiscrib":"Sponsor","id":25,"name":"Smith Brothers Farms","size":"10'x10","type":"Sponsor","expired":null,"rotate":null,"left_panel":null}},{"type":"Feature","geometry":{"type":"Point","coordinates":[-122.38660930000003,47.66870174]},"properties":{"show_label":"","active":"","toggleSymb":"","icon":"","show_icon":"","details":"","toggleSym1":"","typeDiscrib":"Sponsor","id":26,"name":"Renewal by Anderson","size":"10'x10","type":"Sponsor","expired":null,"rotate":null,"left_panel":null}},{"type":"Feature","geometry":{"type":"Point","coordinates":[-122.38658049999998,47.66872159]},"properties":{"show_label":"","active":"","toggleSymb":"","icon":"","show_icon":"","details":"","toggleSym1":"","typeDiscrib":"Sponsor","id":27,"name":"Sugar Plum","size":"10'x10","type":"Sponsor","expired":null,"rotate":null,"left_panel":null}},{"type":"Feature","geometry":{"type":"Point","coordinates":[-122.38658040000001,47.66870174]},"properties":{"show_label":"","active":"","toggleSymb":"","icon":"","show_icon":"","details":"","toggleSym1":"","typeDiscrib":"Sponsor","id":28,"name":"Gutter Helmet","size":"10'x10","type":"Sponsor","expired":null,"rotate":null,"left_panel":null}},{"type":"Feature","geometry":{"type":"Point","coordinates":[-122.38650239999998,47.66872052]},"properties":{"show_label":"","active":"","toggleSymb":"","icon":"","show_icon":"","details":"","toggleSym1":"","typeDiscrib":"Sponsor","id":29,"name":"Integrated Rehab Group","size":"10'x10'","type":"Sponsor","expired":null,"rotate":null,"left_panel":null}},{"type":"Feature","geometry":{"type":"Point","coordinates":[-122.38650230000002,47.66870132]},"properties":{"show_label":"","active":"","toggleSymb":"","icon":"","show_icon":"","details":"","toggleSym1":"","typeDiscrib":"Clothing","id":30,"name":"Uphill Designs Co.","size":"10'x20'","type":"A/C","expired":null,"rotate":null,"left_panel":null}},{"type":"Feature","geometry":{"type":"Point","coordinates":[-122.38647300000002,47.6687206]},"properties":{"show_label":"","active":"","toggleSymb":"","icon":"","show_icon":"","details":"","toggleSym1":"","typeDiscrib":"Jewelry","id":31,"name":"Cat's Creations","size":"10'x10","type":"A/C","expired":null,"rotate":null,"left_panel":null}},{"type":"Feature","geometry":{"type":"Point","coordinates":[-122.38647300000002,47.66870157]},"properties":{"show_label":"","active":"","toggleSymb":"","icon":"","show_icon":"","details":"","toggleSym1":"","typeDiscrib":"Clothing","id":32,"name":"Uphill Designs Co.","size":"10'x20'","type":"A/C","expired":null,"rotate":null,"left_panel":null}},{"type":"Feature","geometry":{"type":"Point","coordinates":[-122.38639069999999,47.66872145]},"properties":{"show_label":"","active":"","toggleSymb":"","icon":"","show_icon":"","details":"","toggleSym1":"","typeDiscrib":"Clothing","id":33,"name":"Un Solo Pueblo","size":"10'x20","type":"A/C","expired":null,"rotate":null,"left_panel":null}},{"type":"Feature","geometry":{"type":"Point","coordinates":[-122.38639030000002,47.66870258]},"properties":{"show_label":"","active":"","toggleSymb":"","icon":"","show_icon":"","details":"","toggleSym1":"","typeDiscrib":"Metal art","id":34,"name":"Trapp Industries","size":"10'x20'","type":"A/C","expired":null,"rotate":null,"left_panel":null}},{"type":"Feature","geometry":{"type":"Point","coordinates":[-122.38636050000002,47.66872174]},"properties":{"show_label":"","active":"","toggleSymb":"","icon":"","show_icon":"","details":"","toggleSym1":"","typeDiscrib":"Clothing","id":35,"name":"Un Solo Pueblo","size":"10'x20","type":"A/C","expired":null,"rotate":null,"left_panel":null}},{"type":"Feature","geometry":{"type":"Point","coordinates":[-122.38636029999998,47.66870254]},"properties":{"show_label":"","active":"","toggleSymb":"","icon":"","show_icon":"","details":"","toggleSym1":"","typeDiscrib":"Metal art","id":36,"name":"Trapp Industries","size":"10'x20'","type":"A/C","expired":null,"rotate":null,"left_panel":null}},{"type":"Feature","geometry":{"type":"Point","coordinates":[-122.38628160000002,47.66872159]},"properties":{"show_label":"","active":"","toggleSymb":"","icon":"","show_icon":"","details":"","toggleSym1":"","typeDiscrib":"Sponsor","id":37,"name":"Getaround","size":"10'x10","type":"Sponsor","expired":null,"rotate":null,"left_panel":null}},{"type":"Feature","geometry":{"type":"Point","coordinates":[-122.386281,47.66870268]},"properties":{"show_label":"","active":"","toggleSymb":"","icon":"","show_icon":"","details":"","toggleSym1":"","typeDiscrib":"Sponsor","id":38,"name":"Patagonia","size":"10'x20'","type":"Sponsor","expired":null,"rotate":null,"left_panel":null}},{"type":"Feature","geometry":{"type":"Point","coordinates":[-122.3862517,47.66872183]},"properties":{"show_label":"","active":"","toggleSymb":"","icon":"","show_icon":"","details":"","toggleSym1":"","typeDiscrib":"Sponsor","id":39,"name":"BECU","size":"10'x10","type":"Sponsor","expired":null,"rotate":null,"left_panel":null}},{"type":"Feature","geometry":{"type":"Point","coordinates":[-122.3862517,47.6687028]},"properties":{"show_label":"","active":"","toggleSymb":"","icon":"","show_icon":"","details":"","toggleSym1":"","typeDiscrib":"Sponsor","id":40,"name":"Patagonia","size":"10'x20'","type":"Sponsor","expired":null,"rotate":null,"left_panel":null}},{"type":"Feature","geometry":{"type":"Point","coordinates":[-122.38610119999998,47.66872183]},"properties":{"show_label":"","active":"","toggleSymb":"","icon":"","show_icon":"","details":"","toggleSym1":"","typeDiscrib":"Sponsor","id":41,"name":"Market Street Shoes","size":"10'x10","type":"Sponsor","expired":null,"rotate":null,"left_panel":null}},{"type":"Feature","geometry":{"type":"Point","coordinates":[-122.38610119999998,47.66870237]},"properties":{"show_label":"","active":"","toggleSymb":"","icon":"","show_icon":"","details":"","toggleSym1":"","typeDiscrib":"Baby goods","id":42,"name":"Original Baby Bundle / Mixed Metals","size":"10'x20'","type":"A/C","expired":null,"rotate":null,"left_panel":null}},{"type":"Feature","geometry":{"type":"Point","coordinates":[-122.38607179999997,47.66872208]},"properties":{"show_label":"","active":"","toggleSymb":"","icon":"","show_icon":"","details":"","toggleSym1":"","typeDiscrib":"Jewelry","id":43,"name":"Amora Piedra","size":"10'x10","type":"A/C","expired":null,"rotate":null,"left_panel":null}},{"type":"Feature","geometry":{"type":"Point","coordinates":[-122.38607230000002,47.66870237]},"properties":{"show_label":"","active":"","toggleSymb":"","icon":"","show_icon":"","details":"","toggleSym1":"","typeDiscrib":"Baby goods","id":44,"name":"Original Baby Bundle / Mixed Metals","size":"10'x20'","type":"A/C","expired":null,"rotate":null,"left_panel":null}},{"type":"Feature","geometry":{"type":"Point","coordinates":[-122.3859979,47.66872225]},"properties":{"show_label":"","active":"","toggleSymb":"","icon":"","show_icon":"","details":"","toggleSym1":"","typeDiscrib":"Ceramic art","id":45,"name":"Kelsey Melville","size":"10'x10","type":"A/C","expired":null,"rotate":null,"left_panel":null}},{"type":"Feature","geometry":{"type":"Point","coordinates":[-122.38599750000003,47.66870262]},"properties":{"show_label":"","active":"","toggleSymb":"","icon":"","show_icon":"","details":"","toggleSym1":"","typeDiscrib":"Sponsor","id":46,"name":"Hubert Lemonade","size":"10'x10","type":"Sponsor","expired":null,"rotate":null,"left_panel":null}},{"type":"Feature","geometry":{"type":"Point","coordinates":[-122.38596799999999,47.66872208]},"properties":{"show_label":"","active":"","toggleSymb":"","icon":"","show_icon":"","details":"","toggleSym1":"","typeDiscrib":"Sponsor","id":47,"name":"Lasik Vision","size":"10'x10","type":"Sponsor","expired":null,"rotate":null,"left_panel":null}},{"type":"Feature","geometry":{"type":"Point","coordinates":[-122.38596799999999,47.66870262]},"properties":{"show_label":"","active":"","toggleSymb":"","icon":"","show_icon":"","details":"","toggleSym1":"","typeDiscrib":"Paper art","id":48,"name":"Linda McClamrock Recycled Paper Collage","size":"10'x10","type":"A/C","expired":null,"rotate":null,"left_panel":null}},{"type":"Feature","geometry":{"type":"Point","coordinates":[-122.38588370000002,47.66872208]},"properties":{"show_label":"","active":"","toggleSymb":"","icon":"","show_icon":"","details":"","toggleSym1":"","typeDiscrib":"Jewelry","id":49,"name":"Semilla Designs","size":"10'x10","type":"A/C","expired":null,"rotate":null,"left_panel":null}},{"type":"Feature","geometry":{"type":"Point","coordinates":[-122.38588279999999,47.66870256]},"properties":{"show_label":"","active":"","toggleSymb":"","icon":"","show_icon":"","details":"","toggleSym1":"","typeDiscrib":"Metal art","id":50,"name":"Freeborn Metal Art","size":"10'x20'","type":"A/C","expired":null,"rotate":null,"left_panel":null}},{"type":"Feature","geometry":{"type":"Point","coordinates":[-122.3858535,47.66872183]},"properties":{"show_label":"","active":"","toggleSymb":"","icon":"","show_icon":"","details":"","toggleSym1":"","typeDiscrib":"Jewelry","id":51,"name":"Pearls by Nature","size":"10'x10","type":"A/C","expired":null,"rotate":null,"left_panel":null}},{"type":"Feature","geometry":{"type":"Point","coordinates":[-122.3858535,47.6687028]},"properties":{"show_label":"","active":"","toggleSymb":"","icon":"","show_icon":"","details":"","toggleSym1":"","typeDiscrib":"Metal art","id":52,"name":"Freeborn Metal Art","size":"10'x20'","type":"A/C","expired":null,"rotate":null,"left_panel":null}},{"type":"Feature","geometry":{"type":"Point","coordinates":[-122.38577570000001,47.66872208]},"properties":{"show_label":"","active":"","toggleSymb":"","icon":"","show_icon":"","details":"","toggleSym1":"","typeDiscrib":"Wooden baskets","id":53,"name":"Amazing Wood Baskets","size":"10'x10","type":"A/C","expired":null,"rotate":null,"left_panel":null}},{"type":"Feature","geometry":{"type":"Point","coordinates":[-122.38577570000001,47.66870262]},"properties":{"show_label":"","active":"","toggleSymb":"","icon":"","show_icon":"","details":"","toggleSym1":"","typeDiscrib":"Sponsor","id":54,"name":"Reach Now","size":"10'x10","type":"Sponsor","expired":null,"rotate":null,"left_panel":null}},{"type":"Feature","geometry":{"type":"Point","coordinates":[-122.3857463,47.66872233]},"properties":{"show_label":"","active":"","toggleSymb":"","icon":"","show_icon":"","details":"","toggleSym1":"","typeDiscrib":"Jewelry","id":55,"name":"Andrea Designs","size":"10'x10","type":"A/C","expired":null,"rotate":null,"left_panel":null}},{"type":"Feature","geometry":{"type":"Point","coordinates":[-122.38574619999997,47.66870303]},"properties":{"show_label":"","active":"","toggleSymb":"","icon":"","show_icon":"","details":"","toggleSym1":"","typeDiscrib":"Sponsor","id":56,"name":"Fit 36","size":"10'x10","type":"Sponsor","expired":null,"rotate":null,"left_panel":null}},{"type":"Feature","geometry":{"type":"Point","coordinates":[-122.38566609999998,47.6687224]},"properties":{"show_label":"","active":"","toggleSymb":"","icon":"","show_icon":"","details":"","toggleSym1":"","typeDiscrib":"Mustards","id":57,"name":"Mustard & Co.","size":"10'x10","type":"A/C","expired":null,"rotate":null,"left_panel":null}},{"type":"Feature","geometry":{"type":"Point","coordinates":[-122.38566609999998,47.66870294]},"properties":{"show_label":"","active":"","toggleSymb":"","icon":"","show_icon":"","details":"","toggleSym1":"","typeDiscrib":"Sponsor","id":58,"name":"Alaska USA Federal Credit Union","size":"10'x10","type":"Sponsor","expired":null,"rotate":null,"left_panel":null}},{"type":"Feature","geometry":{"type":"Point","coordinates":[-122.38563670000002,47.66872341]},"properties":{"show_label":"","active":"","toggleSymb":"","icon":"","show_icon":"","details":"","toggleSym1":"","typeDiscrib":"Plush toys","id":59,"name":"Zoms","size":"10'x10","type":"A/C","expired":null,"rotate":null,"left_panel":null}},{"type":"Feature","geometry":{"type":"Point","coordinates":[-122.38563670000002,47.66870319]},"properties":{"show_label":"","active":"","toggleSymb":"","icon":"","show_icon":"","details":"","toggleSym1":"","typeDiscrib":"Wooden art","id":60,"name":"Languid Decadence Artworks","size":"10'x10","type":"A/C","expired":null,"rotate":null,"left_panel":null}},{"type":"Feature","geometry":{"type":"Point","coordinates":[-122.38555659999997,47.66872326]},"properties":{"show_label":"","active":"","toggleSymb":"","icon":"","show_icon":"","details":"","toggleSym1":"","typeDiscrib":"Handbags and leather goods","id":61,"name":"Huaracha Studios","size":"10'x10","type":"A/C","expired":null,"rotate":null,"left_panel":null}},{"type":"Feature","geometry":{"type":"Point","coordinates":[-122.3855562,47.66870402]},"properties":{"show_label":"","active":"","toggleSymb":"","icon":"","show_icon":"","details":"","toggleSym1":"","typeDiscrib":"Jewelry","id":62,"name":"Seciwa's SW Native Jewelry & Crafts","size":"10'x10","type":"A/C","expired":null,"rotate":null,"left_panel":null}},{"type":"Feature","geometry":{"type":"Point","coordinates":[-122.38552670000001,47.6687231]},"properties":{"show_label":"","active":"","toggleSymb":"","icon":"","show_icon":"","details":"","toggleSym1":"","typeDiscrib":"Seafood condiments and samples","id":63,"name":"Seattle Artisan Foods","size":"10'x10","type":"A/C","expired":null,"rotate":null,"left_panel":null}},{"type":"Feature","geometry":{"type":"Point","coordinates":[-122.38552670000001,47.66870447]},"properties":{"show_label":"","active":"","toggleSymb":"","icon":"","show_icon":"","details":"","toggleSym1":"","typeDiscrib":"Candles","id":64,"name":"KlapNKlip Candles","size":"10'x10","type":"A/C","expired":null,"rotate":null,"left_panel":null}},{"type":"Feature","geometry":{"type":"Point","coordinates":[-122.38545169999998,47.66872269]},"properties":{"show_label":"","active":"","toggleSymb":"","icon":"","show_icon":"","details":"","toggleSym1":"","typeDiscrib":"Non-profit union group","id":65,"name":"UFCW 21","size":"10'x10","type":"A/C","expired":null,"rotate":null,"left_panel":null}},{"type":"Feature","geometry":{"type":"Point","coordinates":[-122.38545160000001,47.66870333]},"properties":{"show_label":"","active":"","toggleSymb":"","icon":"","show_icon":"","details":"","toggleSym1":"","typeDiscrib":"Clothing","id":66,"name":"MA Graphics","size":"10'x20'","type":"A/C","expired":null,"rotate":null,"left_panel":null}},{"type":"Feature","geometry":{"type":"Point","coordinates":[-122.3854222,47.66872261]},"properties":{"show_label":"","active":"","toggleSymb":"","icon":"","show_icon":"","details":"","toggleSym1":"","typeDiscrib":"Travel accessories","id":67,"name":"Jeri-Oh's Travel Accessories","size":"10'x10","type":"A/C","expired":null,"rotate":null,"left_panel":null}},{"type":"Feature","geometry":{"type":"Point","coordinates":[-122.3854222,47.66870358]},"properties":{"show_label":"","active":"","toggleSymb":"","icon":"","show_icon":"","details":"","toggleSym1":"","typeDiscrib":"Clothing","id":68,"name":"MA Graphics","size":"10'x20'","type":"A/C","expired":null,"rotate":null,"left_panel":null}},{"type":"Feature","geometry":{"type":"Point","coordinates":[-122.38534609999999,47.66872247]},"properties":{"show_label":"","active":"","toggleSymb":"","icon":"","show_icon":"","details":"","toggleSym1":"","typeDiscrib":"40' Metro Bus","id":69,"name":"King Co. Metro","size":"10'x10","type":"A/C","expired":null,"rotate":null,"left_panel":null}},{"type":"Feature","geometry":{"type":"Point","coordinates":[-122.38534549999997,47.66870383]},"properties":{"show_label":"","active":"","toggleSymb":"","icon":"","show_icon":"","details":"","toggleSym1":"","typeDiscrib":"Paintings","id":70,"name":"Tim Wistrom Fine Art Paintings","size":"10'x20'","type":"A/C","expired":null,"rotate":null,"left_panel":null}},{"type":"Feature","geometry":{"type":"Point","coordinates":[-122.3853163,47.6687231]},"properties":{"show_label":"","active":"","toggleSymb":"","icon":"","show_icon":"","details":"","toggleSym1":"","typeDiscrib":"40' Metro Bus","id":71,"name":"King Co. Metro","size":"10'x10","type":"Sponsor","expired":null,"rotate":null,"left_panel":null}},{"type":"Feature","geometry":{"type":"Point","coordinates":[-122.38531710000001,47.66870383]},"properties":{"show_label":"","active":"","toggleSymb":"","icon":"","show_icon":"","details":"","toggleSym1":"","typeDiscrib":"Paintings","id":72,"name":"Tim Wistrom Fine Art Paintings","size":"10'x20'","type":"A/C","expired":null,"rotate":null,"left_panel":null}},{"type":"Feature","geometry":{"type":"Point","coordinates":[-122.38523359999999,47.66872247]},"properties":{"show_label":"","active":"","toggleSymb":"","icon":"","show_icon":"","details":"","toggleSym1":"","typeDiscrib":"Wood working","id":73,"name":"Forest Life Creations","size":"10'x10","type":"A/C","expired":null,"rotate":null,"left_panel":null}},{"type":"Feature","geometry":{"type":"Point","coordinates":[-122.3852331,47.66870294]},"properties":{"show_label":"","active":"","toggleSymb":"","icon":"","show_icon":"","details":"","toggleSym1":"","typeDiscrib":"Balsalmic and olive oils","id":74,"name":"Celia's Gourmet Foods","size":"10'x10","type":"A/C","expired":null,"rotate":null,"left_panel":null}},{"type":"Feature","geometry":{"type":"Point","coordinates":[-122.38520370000003,47.66872222]},"properties":{"show_label":"","active":"","toggleSymb":"","icon":"","show_icon":"","details":"","toggleSym1":"","typeDiscrib":"Clothing","id":75,"name":"Pure Intent","size":"10'x10","type":"A/C","expired":null,"rotate":null,"left_panel":null}},{"type":"Feature","geometry":{"type":"Point","coordinates":[-122.38520370000003,47.66870319]},"properties":{"show_label":"","active":"","toggleSymb":"","icon":"","show_icon":"","details":"","toggleSym1":"","typeDiscrib":"Cermaics","id":76,"name":"Cascadia Stoneware","size":"10'x10","type":"A/C","expired":null,"rotate":null,"left_panel":null}},{"type":"Feature","geometry":{"type":"Point","coordinates":[-122.38512650000001,47.66872247]},"properties":{"show_label":"","active":"","toggleSymb":"","icon":"","show_icon":"","details":"","toggleSym1":"","typeDiscrib":"Baked goods mixes","id":77,"name":"Papa Ray's Market Place","size":"10'x10","type":"A/C","expired":null,"rotate":null,"left_panel":null}},{"type":"Feature","geometry":{"type":"Point","coordinates":[-122.38512650000001,47.66870342]},"properties":{"show_label":"","active":"","toggleSymb":"","icon":"","show_icon":"","details":"","toggleSym1":"","typeDiscrib":"Art prints","id":78,"name":"Powerslide Design Co.","size":"10'x10","type":"A/C","expired":null,"rotate":null,"left_panel":null}},{"type":"Feature","geometry":{"type":"Point","coordinates":[-122.38509720000002,47.66872189]},"properties":{"show_label":"","active":"","toggleSymb":"","icon":"","show_icon":"","details":"","toggleSym1":"","typeDiscrib":"Hot sauces","id":79,"name":"Ballyhoo Hot Sauce","size":"10'x10","type":"A/C","expired":null,"rotate":null,"left_panel":null}},{"type":"Feature","geometry":{"type":"Point","coordinates":[-122.38509699999997,47.66870301]},"properties":{"show_label":"","active":"","toggleSymb":"","icon":"","show_icon":"","details":"","toggleSym1":"","typeDiscrib":"Handbags  ","id":80,"name":"Metamorphic","size":"10'x10","type":"A/C","expired":null,"rotate":null,"left_panel":null}},{"type":"Feature","geometry":{"type":"Point","coordinates":[-122.38501969999999,47.66872287]},"properties":{"show_label":"","active":"","toggleSymb":"","icon":"","show_icon":"","details":"","toggleSym1":"","typeDiscrib":"Plants","id":81,"name":"Terraria","size":"10'x10","type":"A/C","expired":null,"rotate":null,"left_panel":null}},{"type":"Feature","geometry":{"type":"Point","coordinates":[-122.38501969999999,47.66870372]},"properties":{"show_label":"","active":"","toggleSymb":"","icon":"","show_icon":"","details":"","toggleSym1":"","typeDiscrib":"Sponsor","id":82,"name":"New Seasons","size":"10'x10","type":"Sponsor","expired":null,"rotate":null,"left_panel":null}},{"type":"Feature","geometry":{"type":"Point","coordinates":[-122.38499039999999,47.66872299]},"properties":{"show_label":"","active":"","toggleSymb":"","icon":"","show_icon":"","details":"","toggleSym1":"","typeDiscrib":"Sponsor","id":83,"name":"Full Circle","size":"10'x10","type":"Sponsor","expired":null,"rotate":null,"left_panel":null}},{"type":"Feature","geometry":{"type":"Point","coordinates":[-122.38499039999999,47.66870396]},"properties":{"show_label":"","active":"","toggleSymb":"","icon":"","show_icon":"","details":"","toggleSym1":"","typeDiscrib":"Comics and art","id":84,"name":"Grumpy Old Man's Comics","size":"10'x10","type":"A/C","expired":null,"rotate":null,"left_panel":null}},{"type":"Feature","geometry":{"type":"Point","coordinates":[-122.38493840000001,47.66871313]},"properties":{"show_label":"","active":"","toggleSymb":"","icon":"","show_icon":"","details":"","toggleSym1":"","typeDiscrib":"Sponsor","id":85,"name":"UW Medicine","size":"10'x10","type":"Sponsor","expired":null,"rotate":null,"left_panel":null}},{"type":"Feature","geometry":{"type":"Point","coordinates":[-122.3848375415638,47.66860414986466]},"properties":{"show_label":"","active":"","toggleSymb":"","icon":"","show_icon":"","details":"","toggleSym1":"","typeDiscrib":"Sponsor","id":86,"name":"Gravity Payments","size":"10'x20'","type":"Sponsor","expired":null,"rotate":null,"left_panel":null}},{"type":"Feature","geometry":{"type":"Point","coordinates":[-122.38480800000002,47.66849997]},"properties":{"show_label":"","active":"","toggleSymb":"","icon":"svg_crab","show_icon":"","details":"","toggleSym1":"","typeDiscrib":"Crabs and shellfish","id":87,"name":"Crab Shack / Shellshole","size":"10'x20'","type":"Food","expired":null,"rotate":null,"left_panel":null}},{"type":"Feature","geometry":{"type":"Point","coordinates":[-122.38480730000003,47.66845364]},"properties":{"show_label":"","active":"","toggleSymb":"","icon":"","show_icon":"","details":"","toggleSym1":"","typeDiscrib":"N/A","id":88,"name":"Reefer Trail for Shilshell","size":"10'x20'","type":"Food","expired":null,"rotate":null,"left_panel":null}},{"type":"Feature","geometry":{"type":"Point","coordinates":[-122.38480779999998,47.66840663]},"properties":{"show_label":"","active":"","toggleSymb":"","icon":"","show_icon":"","details":"","toggleSym1":"","typeDiscrib":"Ice cream  ","id":89,"name":"Island Creamery Concessions","size":"10'x20'","type":"Food","expired":null,"rotate":null,"left_panel":null}},{"type":"Feature","geometry":{"type":"Point","coordinates":[-122.38480749999997,47.66836161]},"properties":{"show_label":"","active":"","toggleSymb":"","icon":"","show_icon":"","details":"","toggleSym1":"","typeDiscrib":"Funnel Cakes","id":90,"name":"Sequim Valley","size":"10'x20'","type":"Food","expired":null,"rotate":null,"left_panel":null}},{"type":"Feature","geometry":{"type":"Point","coordinates":[-122.3848084,47.66832105]},"properties":{"show_label":"","active":"","toggleSymb":"","icon":"","show_icon":"","details":"","toggleSym1":"","typeDiscrib":"Mini donuts","id":91,"name":"Scouts Mini Donuts","size":"10'x10'","type":"Food","expired":null,"rotate":null,"left_panel":null}},{"type":"Feature","geometry":{"type":"Point","coordinates":[-122.38480720000001,47.66828559]},"properties":{"show_label":"","active":"","toggleSymb":"","icon":"","show_icon":"","details":"","toggleSym1":"","typeDiscrib":"Espresso","id":92,"name":"Egyptian Mug Coffee","size":"10'x10'","type":"Food","expired":null,"rotate":null,"left_panel":null}},{"type":"Feature","geometry":{"type":"Point","coordinates":[-122.3848079,47.66824589]},"properties":{"show_label":"","active":"","toggleSymb":"","icon":"","show_icon":"","details":"","toggleSym1":"","typeDiscrib":"Sponsor","id":93,"name":"Carter Subaru","size":"10'x10'","type":"Sponsor","expired":null,"rotate":null,"left_panel":null}},{"type":"Feature","geometry":{"type":"Point","coordinates":[-122.38480700000002,47.66820838]},"properties":{"show_label":"","active":"","toggleSymb":"","icon":"","show_icon":"","details":"","toggleSym1":"","typeDiscrib":"Sponsor","id":94,"name":"Carter Subaru Car","size":"Car","type":"Sponsor","expired":null,"rotate":null,"left_panel":null}},{"type":"Feature","geometry":{"type":"Point","coordinates":[-122.38469929999997,47.66814357]},"properties":{"show_label":"","active":"","toggleSymb":"","icon":"","show_icon":"","details":"","toggleSym1":"","typeDiscrib":"Sponsor","id":95,"name":"Ken's Food","size":"10'x20'","type":"Sponsor","expired":null,"rotate":null,"left_panel":null}},{"type":"Feature","geometry":{"type":"Point","coordinates":[-122.3846987,47.66817639]},"properties":{"show_label":"","active":"","toggleSymb":"","icon":"","show_icon":"","details":"","toggleSym1":"","typeDiscrib":"Sponsor","id":96,"name":"Ballard Vox","size":"10'x10'","type":"Sponsor","expired":null,"rotate":null,"left_panel":null}},{"type":"Feature","geometry":{"type":"Point","coordinates":[-122.3846987,47.66821044]},"properties":{"show_label":"","active":"","toggleSymb":"","icon":"","show_icon":"","details":"","toggleSym1":"","typeDiscrib":"Organic drinks","id":97,"name":"Tiny's Organics","size":"10'x10'","type":"Food","expired":null,"rotate":null,"left_panel":null}},{"type":"Feature","geometry":{"type":"Point","coordinates":[-122.38469880000002,47.66824528]},"properties":{"show_label":"","active":"","toggleSymb":"","icon":"","show_icon":"","details":"","toggleSym1":"","typeDiscrib":"Ice cream canes","id":98,"name":"Ibajella Ice Cream","size":"10'x10'","type":"Food","expired":null,"rotate":null,"left_panel":null}},{"type":"Feature","geometry":{"type":"Point","coordinates":[-122.38469800000001,47.66827713]},"properties":{"show_label":"","active":"","toggleSymb":"","icon":"","show_icon":"","details":"","toggleSym1":"","typeDiscrib":"Liquid nitrogen cereal","id":99,"name":"Stizzy Works Dragons Breath","size":"10'x10'","type":"Food","expired":null,"rotate":null,"left_panel":null}},{"type":"Feature","geometry":{"type":"Point","coordinates":[-122.38469659999998,47.66830657]},"properties":{"show_label":"","active":"","toggleSymb":"","icon":"","show_icon":"","details":"","toggleSym1":"","typeDiscrib":"Popsickles","id":100,"name":"Seattle Pops","size":"10'x10'","type":"Food","expired":null,"rotate":null,"left_panel":null}},{"type":"Feature","geometry":{"type":"Point","coordinates":[-122.3846969,47.66833827]},"properties":{"show_label":"","active":"","toggleSymb":"","icon":"","show_icon":"","details":"","toggleSym1":"","typeDiscrib":"Sweet treats","id":101,"name":"PB Goodness","size":"10'x10'","type":"Food","expired":null,"rotate":null,"left_panel":null}},{"type":"Feature","geometry":{"type":"Point","coordinates":[-122.38469600000002,47.66836751]},"properties":{"show_label":"","active":"","toggleSymb":"","icon":"","show_icon":"","details":"","toggleSym1":"","typeDiscrib":"Ice cream","id":102,"name":"Puffle Up","size":"10'x15'","type":"Food","expired":null,"rotate":null,"left_panel":null}},{"type":"Feature","geometry":{"type":"Point","coordinates":[-122.38469709999998,47.66839299]},"properties":{"show_label":"","active":"","toggleSymb":"","icon":"","show_icon":"","details":"","toggleSym1":"","typeDiscrib":"Sponsor","id":103,"name":"James Bay Distillers","size":"10'x10'","type":"Sponsor","expired":null,"rotate":null,"left_panel":null}},{"type":"Feature","geometry":{"type":"Point","coordinates":[-122.38469780000003,47.66841659]},"properties":{"show_label":"","active":"","toggleSymb":"","icon":"","show_icon":"","details":"","toggleSym1":"","typeDiscrib":"Sponsor","id":104,"name":"Green Solutions Heating and Cooling","size":"10'x20'","type":"Sponsor","expired":null,"rotate":null,"left_panel":null}},{"type":"Feature","geometry":{"type":"Point","coordinates":[-122.38469900000001,47.66845242]},"properties":{"show_label":"","active":"","toggleSymb":"","icon":"","show_icon":"","details":"","toggleSym1":"","typeDiscrib":"Crabs and shellfish","id":105,"name":"Crab Lounge","size":"10'x20'","type":"Food","expired":null,"rotate":null,"left_panel":null}},{"type":"Feature","geometry":{"type":"Point","coordinates":[-122.38469620000001,47.66850012]},"properties":{"show_label":"","active":"","toggleSymb":"","icon":"","show_icon":"","details":"","toggleSym1":"","typeDiscrib":"Sponsor","id":106,"name":"Columbia Bank","size":"10'x20'","type":"Sponsor","expired":null,"rotate":null,"left_panel":null}},{"type":"Feature","geometry":{"type":"Point","coordinates":[-122.38463519999999,47.66859312]},"properties":{"show_label":"","active":"","toggleSymb":"","icon":"","show_icon":"","details":"","toggleSym1":"","typeDiscrib":"Strawberry shortcakes","id":107,"name":"Biringer Farms","size":"10'x10'","type":"Food","expired":null,"rotate":null,"left_panel":null}},{"type":"Feature","geometry":{"type":"Point","coordinates":[-122.38454289999999,47.66859146]},"properties":{"show_label":"","active":"","toggleSymb":"","icon":"","show_icon":"","details":"","toggleSym1":"","typeDiscrib":"Popcorn","id":108,"name":"Miss Hannah's Popcorn","size":"10'x10'","type":"Food","expired":null,"rotate":null,"left_panel":null}},{"type":"Feature","geometry":{"type":"Point","coordinates":[-122.3843617,47.66849572]},"properties":{"show_label":"","active":"","toggleSymb":"","icon":"","show_icon":"","details":"","toggleSym1":"","typeDiscrib":"Scallops","id":109,"name":"Alaskan Weathervane Scallops","size":"10'x40'","type":"Food","expired":null,"rotate":null,"left_panel":null}},{"type":"Feature","geometry":{"type":"Point","coordinates":[-122.38428670000002,47.66843271]},"properties":{"show_label":"","active":"","toggleSymb":"","icon":"","show_icon":"","details":"","toggleSym1":"","typeDiscrib":"Paella","id":110,"name":"Paella House","size":"10'x20'","type":"Food","expired":null,"rotate":null,"left_panel":null}},{"type":"Feature","geometry":{"type":"Point","coordinates":[-122.3842244,47.66838168]},"properties":{"show_label":"","active":"","toggleSymb":"","icon":"","show_icon":"","details":"","toggleSym1":"","typeDiscrib":"Piroshys","id":111,"name":"Kaleenka Piroshky","size":"10'x25'","type":"Food","expired":null,"rotate":null,"left_panel":null}},{"type":"Feature","geometry":{"type":"Point","coordinates":[-122.38412060000002,47.66828637]},"properties":{"show_label":"","active":"","toggleSymb":"","icon":"","show_icon":"","details":"","toggleSym1":"","typeDiscrib":"Sponsor","id":112,"name":"Mud Bay","size":"10'x10'","type":"Sponsor","expired":null,"rotate":null,"left_panel":null}},{"type":"Feature","geometry":{"type":"Point","coordinates":[-122.38409160000003,47.66826162]},"properties":{"show_label":"","active":"","toggleSymb":"","icon":"","show_icon":"","details":"","toggleSym1":"","typeDiscrib":"Hot sauces","id":113,"name":"Secret Aardvark","size":"10'x10'","type":"A/C","expired":null,"rotate":null,"left_panel":null}},{"type":"Feature","geometry":{"type":"Point","coordinates":[-122.38405669999997,47.66823192]},"properties":{"show_label":"","active":"","toggleSymb":"","icon":"","show_icon":"","details":"","toggleSym1":"","typeDiscrib":"Fudge","id":114,"name":"Mr. Fudge","size":"10'x10'","type":"A/C","expired":null,"rotate":null,"left_panel":null}},{"type":"Feature","geometry":{"type":"Point","coordinates":[-122.3840214,47.66820611]},"properties":{"show_label":"","active":"","toggleSymb":"","icon":"","show_icon":"","details":"","toggleSym1":"","typeDiscrib":"Jerky","id":115,"name":"Friday Harbor Jerky","size":"10'x10'","type":"A/C","expired":null,"rotate":null,"left_panel":null}},{"type":"Feature","geometry":{"type":"Point","coordinates":[-122.38398660000001,47.66818133]},"properties":{"show_label":"","active":"","toggleSymb":"","icon":"","show_icon":"","details":"","toggleSym1":"","typeDiscrib":"Non-profit children care organization","id":116,"name":"Westside Baby","size":"10'x10'","type":"A/C","expired":null,"rotate":null,"left_panel":null}},{"type":"Feature","geometry":{"type":"Point","coordinates":[-122.38395680000002,47.66815657]},"properties":{"show_label":"","active":"","toggleSymb":"","icon":"","show_icon":"","details":"","toggleSym1":"","typeDiscrib":"Cards and paper products","id":117,"name":"Pike Street Press","size":"10'x10'","type":"A/C","expired":null,"rotate":null,"left_panel":null}},{"type":"Feature","geometry":{"type":"Point","coordinates":[-122.38392399999998,47.66813171]},"properties":{"show_label":"","active":"","toggleSymb":"","icon":"","show_icon":"","details":"","toggleSym1":"","typeDiscrib":"Sketch art","id":118,"name":"Sketches by the Sea","size":"10'x10'","type":"A/C","expired":null,"rotate":null,"left_panel":null}},{"type":"Feature","geometry":{"type":"Point","coordinates":[-122.3838058,47.66818666]},"properties":{"show_label":"","active":"","toggleSymb":"","icon":"","show_icon":"","details":"","toggleSym1":"","typeDiscrib":"Rock climbing wall","id":120,"name":"Fix Enterprises Rock Wall","size":"25' x 45' ","type":"Amusement","expired":null,"rotate":null,"left_panel":null}},{"type":"Feature","geometry":{"type":"Point","coordinates":[-122.38395930000001,47.66832077]},"properties":{"show_label":"","active":"","toggleSymb":"","icon":"","show_icon":"","details":"","toggleSym1":"","typeDiscrib":"Jewelry","id":121,"name":"Baraka Gemstones and Jewelry","size":"10'x10'","type":"A/C","expired":null,"rotate":null,"left_panel":null}},{"type":"Feature","geometry":{"type":"Point","coordinates":[-122.38399329999999,47.66834925]},"properties":{"show_label":"","active":"","toggleSymb":"","icon":"","show_icon":"","details":"","toggleSym1":"","typeDiscrib":"Wood art","id":122,"name":"Krauskopf Works","size":"10'x10'","type":"A/C","expired":null,"rotate":null,"left_panel":null}},{"type":"Feature","geometry":{"type":"Point","coordinates":[-122.38402830000001,47.66837709]},"properties":{"show_label":"","active":"","toggleSymb":"","icon":"","show_icon":"","details":"","toggleSym1":"","typeDiscrib":"Water protection","id":123,"name":"Seattle Public Utilities","size":"10'x10'","type":"Non-Profit","expired":null,"rotate":null,"left_panel":null}},{"type":"Feature","geometry":{"type":"Point","coordinates":[-122.38406299999997,47.66840592]},"properties":{"show_label":"","active":"","toggleSymb":"","icon":"","show_icon":"","details":"","toggleSym1":"","typeDiscrib":"Handbags","id":124,"name":"Purses with Personality","size":"10'x10'","type":"A/C","expired":null,"rotate":null,"left_panel":null}},{"type":"Feature","geometry":{"type":"Point","coordinates":[-122.38410190000002,47.66843849]},"properties":{"show_label":"","active":"","toggleSymb":"","icon":"","show_icon":"","details":"","toggleSym1":"","typeDiscrib":"Cocktail mixes","id":125,"name":"Improper Goods","size":"10'x10","type":"A/C","expired":null,"rotate":null,"left_panel":null}},{"type":"Feature","geometry":{"type":"Point","coordinates":[-122.38413700000001,47.66847078]},"properties":{"show_label":"","active":"","toggleSymb":"","icon":"","show_icon":"","details":"","toggleSym1":"","typeDiscrib":"Henna art","id":126,"name":"Mehndi Madness","size":"10'x10'","type":"A/C","expired":null,"rotate":null,"left_panel":null}},{"type":"Feature","geometry":{"type":"Point","coordinates":[-122.38414139999998,47.66856881]},"properties":{"show_label":"","active":"","toggleSymb":"","icon":"","show_icon":"","details":"","toggleSym1":"","typeDiscrib":"Lemonade","id":127,"name":"The Lemonade Guy","size":"10'x10'","type":"Food","expired":null,"rotate":null,"left_panel":null}},{"type":"Feature","geometry":{"type":"Point","coordinates":[-122.38409460000003,47.6686325]},"properties":{"show_label":"","active":"","toggleSymb":"","icon":"","show_icon":"","details":"","toggleSym1":"","typeDiscrib":"Seafood","id":128,"name":"The Fork and Fin","size":"Food Truck","type":"Food","expired":null,"rotate":null,"left_panel":null}},{"type":"Feature","geometry":{"type":"Point","coordinates":[-122.38404130000004,47.66863272]},"properties":{"show_label":"","active":"","toggleSymb":"","icon":"","show_icon":"","details":"","toggleSym1":"","typeDiscrib":"Seafood and salads","id":129,"name":"Scotty's Northwest LLC","size":"10'x10'","type":"Food","expired":null,"rotate":null,"left_panel":null}},{"type":"Feature","geometry":{"type":"Point","coordinates":[-122.38396399999999,47.66863341]},"properties":{"show_label":"","active":"","toggleSymb":"","icon":"","show_icon":"","details":"","toggleSym1":"","typeDiscrib":"Soulfood-inspired seafood","id":130,"name":"Simply Soulful","size":"10'x10'","type":"Food","expired":null,"rotate":null,"left_panel":null}},{"type":"Feature","geometry":{"type":"Point","coordinates":[-122.3839289,47.66863341]},"properties":{"show_label":"","active":"","toggleSymb":"","icon":"","show_icon":"","details":"","toggleSym1":"","typeDiscrib":"Corn on the cob","id":131,"name":"The Corn Roasters LLC","size":"10'x10'","type":"Food","expired":null,"rotate":null,"left_panel":null}},{"type":"Feature","geometry":{"type":"Point","coordinates":[-122.38383320000003,47.66863354]},"properties":{"show_label":"","active":"","toggleSymb":"","icon":"","show_icon":"","details":"","toggleSym1":"","typeDiscrib":"Asian-inspired seafood","id":132,"name":"Vong's Kitchen","size":"10'x20'","type":"Food","expired":null,"rotate":null,"left_panel":null}},{"type":"Feature","geometry":{"type":"Point","coordinates":[-122.3837494,47.66863272]},"properties":{"show_label":"","active":"","toggleSymb":"","icon":"","show_icon":"","details":"","toggleSym1":"","typeDiscrib":"Americana seafood","id":133,"name":"Gather Kitchen and Bar","size":"10'x10'","type":"Food","expired":null,"rotate":null,"left_panel":null}},{"type":"Feature","geometry":{"type":"Point","coordinates":[-122.3836766,47.66863043]},"properties":{"show_label":"","active":"","toggleSymb":"","icon":"","show_icon":"","details":"","toggleSym1":"","typeDiscrib":"Cajun burgers","id":134,"name":"Bad Albert's","size":"10'x15'","type":"Food","expired":null,"rotate":null,"left_panel":null}},{"type":"Feature","geometry":{"type":"Point","coordinates":[-122.3835712,47.66863215]},"properties":{"show_label":"","active":"","toggleSymb":"","icon":"","show_icon":"","details":"","toggleSym1":"","typeDiscrib":"Fair foods and seafood","id":135,"name":"Irishman Enterprises","size":"10'x30'","type":"Food","expired":null,"rotate":null,"left_panel":null}},{"type":"Feature","geometry":{"type":"Point","coordinates":[-122.38348200000001,47.66863285]},"properties":{"show_label":"","active":"","toggleSymb":"","icon":"","show_icon":"","details":"","toggleSym1":"","typeDiscrib":"Salmon burgers","id":136,"name":"Cousins Gourmet","size":"10'x15'","type":"Food","expired":null,"rotate":null,"left_panel":null}},{"type":"Feature","geometry":{"type":"Point","coordinates":[-122.38342969999997,47.66863285]},"properties":{"show_label":"","active":"","toggleSymb":"","icon":"","show_icon":"","details":"","toggleSym1":"","typeDiscrib":"Po' boys","id":137,"name":"Anthony's Concessions","size":"10'x10'","type":"Food","expired":null,"rotate":null,"left_panel":null}},{"type":"Feature","geometry":{"type":"Point","coordinates":[-122.3833816,47.66863583]},"properties":{"show_label":"","active":"","toggleSymb":"","icon":"","show_icon":"","details":"","toggleSym1":"","typeDiscrib":"Sandwiches","id":138,"name":"The Doner Haus","size":"10'x10'","type":"Food","expired":null,"rotate":null,"left_panel":null}},{"type":"Feature","geometry":{"type":"Point","coordinates":[-122.38331549999998,47.66863583]},"properties":{"show_label":"","active":"","toggleSymb":"","icon":"","show_icon":"","details":"","toggleSym1":"","typeDiscrib":"Seafood","id":139,"name":"Barriga Llena","size":"10'x10'","type":"Food","expired":null,"rotate":null,"left_panel":null}},{"type":"Feature","geometry":{"type":"Point","coordinates":[-122.38327219999996,47.66863235]},"properties":{"show_label":"","active":"","toggleSymb":"","icon":"","show_icon":"","details":"","toggleSym1":"","typeDiscrib":"Hawaiian-style BBQ","id":140,"name":"Pac Island Grill Hawaiian Style BBQ","size":"10'x20'","type":"Food","expired":null,"rotate":null,"left_panel":null}},{"type":"Feature","geometry":{"type":"Point","coordinates":[-122.38321050000002,47.66863179]},"properties":{"show_label":"","active":"","toggleSymb":"","icon":"","show_icon":"","details":"","toggleSym1":"","typeDiscrib":"Southern seafood","id":141,"name":"New Orleans Cookery","size":"10'x20'","type":"Food","expired":null,"rotate":null,"left_panel":null}},{"type":"Feature","geometry":{"type":"Point","coordinates":[-122.38279339999997,47.66862413]},"properties":{"show_label":"","active":"","toggleSymb":"","icon":"","show_icon":"","details":"","toggleSym1":"","typeDiscrib":"Mac and cheese","id":142,"name":"Mac & Cheese WHAAAAT","size":"10'x15'","type":"Food","expired":null,"rotate":null,"left_panel":null}},{"type":"Feature","geometry":{"type":"Point","coordinates":[-122.3827397,47.66862965]},"properties":{"show_label":"","active":"","toggleSymb":"","icon":"","show_icon":"","details":"","toggleSym1":"","typeDiscrib":"Chowder","id":143,"name":"Pike Place Chowder","size":"10'x20'","type":"Food","expired":null,"rotate":null,"left_panel":null}},{"type":"Feature","geometry":{"type":"Point","coordinates":[-122.3826752,47.66863207]},"properties":{"show_label":"","active":"","toggleSymb":"","icon":"","show_icon":"","details":"","toggleSym1":"","typeDiscrib":"Corn on the cob","id":144,"name":"Kornman of Washington","size":"10'x20'","type":"Food","expired":null,"rotate":null,"left_panel":null}},{"type":"Feature","geometry":{"type":"Point","coordinates":[-122.38259210000001,47.66863354]},"properties":{"show_label":"","active":"","toggleSymb":"","icon":"","show_icon":"","details":"","toggleSym1":"","typeDiscrib":"Asian-inspired seafood","id":145,"name":"Panda Dim Sum","size":"10'x20'","type":"Food","expired":null,"rotate":null,"left_panel":null}},{"type":"Feature","geometry":{"type":"Point","coordinates":[-122.3825218,47.66863182]},"properties":{"show_label":"","active":"","toggleSymb":"","icon":"","show_icon":"","details":"","toggleSym1":"","typeDiscrib":"Iced Tea","id":146,"name":"Stizzy Works Iced Tea","size":"10'x10","type":"Food","expired":null,"rotate":null,"left_panel":null}},{"type":"Feature","geometry":{"type":"Point","coordinates":[-122.382431,47.66862965]},"properties":{"show_label":"","active":"","toggleSymb":"","icon":"","show_icon":"","details":"","toggleSym1":"","typeDiscrib":"Southern seafood","id":147,"name":"Hamhock Soulshack","size":"Food Truck","type":"Food","expired":null,"rotate":null,"left_panel":null}},{"type":"Feature","geometry":{"type":"Point","coordinates":[-122.38236819999997,47.66863043]},"properties":{"show_label":"","active":"","toggleSymb":"","icon":"","show_icon":"","details":"","toggleSym1":"","typeDiscrib":"Asian-inspired seafood","id":148,"name":"Carlos Catering","size":"10'x15'","type":"Food","expired":null,"rotate":null,"left_panel":null}},{"type":"Feature","geometry":{"type":"Point","coordinates":[-122.3824735,47.66871448]},"properties":{"show_label":"","active":"","toggleSymb":"","icon":"","show_icon":"","details":"","toggleSym1":"","typeDiscrib":"Americana  ","id":149,"name":"Wich Came First","size":"Food Truck","type":"Food","expired":null,"rotate":null,"left_panel":null}},{"type":"Feature","geometry":{"type":"Point","coordinates":[-122.382589,47.66871586]},"properties":{"show_label":"","active":"","toggleSymb":"","icon":"","show_icon":"","details":"","toggleSym1":"","typeDiscrib":"Vietnamese-inspired seafood","id":150,"name":"The Lemongrass","size":"10'x10'","type":"Food","expired":null,"rotate":null,"left_panel":null}},{"type":"Feature","geometry":{"type":"Point","coordinates":[-122.3827015,47.66871517]},"properties":{"show_label":"","active":"","toggleSymb":"","icon":"","show_icon":"","details":"","toggleSym1":"","typeDiscrib":"Texas-style BBQ","id":151,"name":"C. Davis Texas BBQ","size":"Food Truck","type":"Food","expired":null,"rotate":null,"left_panel":null}},{"type":"Feature","geometry":{"type":"Point","coordinates":[-122.3828077,47.66871517]},"properties":{"show_label":"","active":"","toggleSymb":"","icon":"","show_icon":"","details":"","toggleSym1":"","typeDiscrib":"Asian-inspired seafood","id":152,"name":"Slide Thru Food Truck","size":"Food Truck","type":"Food","expired":null,"rotate":null,"left_panel":null}},{"type":"Feature","geometry":{"type":"Point","coordinates":[-122.38297420000004,47.66871317]},"properties":{"show_label":"","active":"","toggleSymb":"","icon":"","show_icon":"","details":"","toggleSym1":"","typeDiscrib":"Lemonade","id":153,"name":"Stizzy Works Lemonade","size":"10'x10'","type":"Food","expired":null,"rotate":null,"left_panel":null}},{"type":"Feature","geometry":{"type":"Point","coordinates":[-122.38304820000002,47.66871448]},"properties":{"show_label":"","active":"","toggleSymb":"","icon":"","show_icon":"","details":"","toggleSym1":"","typeDiscrib":"Burgers","id":154,"name":"Stacks","size":"Food Truck","type":"Food","expired":null,"rotate":null,"left_panel":null}},{"type":"Feature","geometry":{"type":"Point","coordinates":[-122.38315399999999,47.66871425]},"properties":{"show_label":"","active":"","toggleSymb":"","icon":"","show_icon":"","details":"","toggleSym1":"","typeDiscrib":"Po' boys","id":155,"name":"Where Ya At Matt","size":"Food Truck","type":"Food","expired":null,"rotate":null,"left_panel":null}},{"type":"Feature","geometry":{"type":"Point","coordinates":[-122.38326330000001,47.66871315]},"properties":{"show_label":"","active":"","toggleSymb":"","icon":"","show_icon":"","details":"","toggleSym1":"","typeDiscrib":"Fish and chips","id":156,"name":"Nosh","size":"Food Truck","type":"Food","expired":null,"rotate":null,"left_panel":null}},{"type":"Feature","geometry":{"type":"Point","coordinates":[-122.38337060000003,47.66871202]},"properties":{"show_label":"","active":"","toggleSymb":"","icon":"","show_icon":"","details":"","toggleSym1":"","typeDiscrib":"Native foods","id":157,"name":"Off the Rez","size":"Food Truck","type":"Food","expired":null,"rotate":null,"left_panel":null}},{"type":"Feature","geometry":{"type":"Point","coordinates":[-122.3835267,47.66871205]},"properties":{"show_label":"","active":"","toggleSymb":"","icon":"","show_icon":"","details":"","toggleSym1":"","typeDiscrib":"Acai bowls","id":158,"name":"Island Blend Acai","size":"Food Truck","type":"Food","expired":null,"rotate":null,"left_panel":null}},{"type":"Feature","geometry":{"type":"Point","coordinates":[-122.3836341,47.66871165]},"properties":{"show_label":"","active":"","toggleSymb":"","icon":"","show_icon":"","details":"","toggleSym1":"","typeDiscrib":"Fish cake sliders","id":159,"name":"Tuk Tuk Mobile Feast","size":"Food Truck","type":"Food","expired":null,"rotate":null,"left_panel":null}},{"type":"Feature","geometry":{"type":"Point","coordinates":[-122.38374199999998,47.66871326]},"properties":{"show_label":"","active":"","toggleSymb":"","icon":"","show_icon":"","details":"","toggleSym1":"","typeDiscrib":"Scandinavian-inspired seafood","id":160,"name":"Tumble Swede","size":"10'x20'","type":"Food","expired":null,"rotate":null,"left_panel":null}},{"type":"Feature","geometry":{"type":"Point","coordinates":[-122.38383099999999,47.66871458]},"properties":{"show_label":"","active":"","toggleSymb":"","icon":"","show_icon":"","details":"","toggleSym1":"","typeDiscrib":"Peruvian-inspired seafood","id":161,"name":"Taste of Peru","size":"10'x15'","type":"Food","expired":null,"rotate":null,"left_panel":null}},{"type":"Feature","geometry":{"type":"Point","coordinates":[-122.38401829999998,47.66871536]},"properties":{"show_label":"","active":"","toggleSymb":"","icon":"","show_icon":"","details":"","toggleSym1":"","typeDiscrib":"Asian-inspired seafood","id":162,"name":"Hapa Food Co.","size":"10'x40'","type":"Food","expired":null,"rotate":null,"left_panel":null}},{"type":"Feature","geometry":{"type":"Point","coordinates":[-122.38420730000001,47.66871437]},"properties":{"show_label":"","active":"","toggleSymb":"","icon":"","show_icon":"","details":"","toggleSym1":"","typeDiscrib":"Bratwurst","id":163,"name":"Zieglers","size":"10'x10'","type":"Food","expired":null,"rotate":null,"left_panel":null}},{"type":"Feature","geometry":{"type":"Point","coordinates":[-122.38435670000001,47.66871614]},"properties":{"show_label":"","active":"","toggleSymb":"","icon":"","show_icon":"","details":"","toggleSym1":"","typeDiscrib":"Cheesey goodness","id":164,"name":"Alpine Cheese Melts / Fire and Scrape","size":"10'x40'","type":"Food","expired":null,"rotate":null,"left_panel":null}},{"type":"Feature","geometry":{"type":"Point","coordinates":[-122.38445810000002,47.66871561]},"properties":{"show_label":"","active":"","toggleSymb":"","icon":"","show_icon":"","details":"","toggleSym1":"","typeDiscrib":"Fish tacos","id":165,"name":"Truly Med","size":"10'x10'","type":"Food","expired":null,"rotate":null,"left_panel":null}},{"type":"Feature","geometry":{"type":"Point","coordinates":[-122.38451120000002,47.66871454]},"properties":{"show_label":"","active":"","toggleSymb":"","icon":"","show_icon":"","details":"","toggleSym1":"","typeDiscrib":"Sponsor","id":166,"name":"Swedish Medical Center","size":"10'x20'","type":"Sponsor","expired":null,"rotate":null,"left_panel":null}},{"type":"Feature","geometry":{"type":"Point","coordinates":[-122.38449330000003,47.6674457]},"properties":{"show_label":"","active":"","toggleSymb":"","icon":"","show_icon":"","details":"","toggleSym1":"","typeDiscrib":"Sponsor","id":167,"name":"Homestreet Bank Hydroplane","size":"10'x20'","type":"Sponsor","expired":null,"rotate":null,"left_panel":null}},{"type":"Feature","geometry":{"type":"Point","coordinates":[-122.38444340000001,47.6674062]},"properties":{"show_label":"","active":"","toggleSymb":"","icon":"","show_icon":"","details":"","toggleSym1":"","typeDiscrib":"Sponsor","id":168,"name":"Homestreet Bank Booth","size":"10'x10'","type":"Sponsor","expired":null,"rotate":null,"left_panel":null}},{"type":"Feature","geometry":{"type":"Point","coordinates":[-122.38440860000003,47.66737877]},"properties":{"show_label":"","active":"","toggleSymb":"","icon":"","show_icon":"","details":"","toggleSym1":"","typeDiscrib":"Girl Scouts","id":169,"name":"Girl Scout Troop 44477 Seattle Elks","size":"10'x10'","type":"Non-Profit","expired":null,"rotate":null,"left_panel":null}},{"type":"Feature","geometry":{"type":"Point","coordinates":[-122.38437099999999,47.66734383]},"properties":{"show_label":"","active":"","toggleSymb":"","icon":"","show_icon":"","details":"","toggleSym1":"","typeDiscrib":"Children's literacy program","id":170,"name":"Page Ahead Children's Lit Program","size":"10'x10'","type":"Non-Profit","expired":null,"rotate":null,"left_panel":null}},{"type":"Feature","geometry":{"type":"Point","coordinates":[-122.38428899999997,47.66729226]},"properties":{"show_label":"","active":"","toggleSymb":"","icon":"","show_icon":"","details":"games","toggleSym1":"","typeDiscrib":"Cornhole game","id":171,"name":"Cornhole Station #1","size":"20'x33'","type":"Amusement","expired":null,"rotate":null,"left_panel":null}},{"type":"Feature","geometry":{"type":"Point","coordinates":[-122.3841989,47.66721047]},"properties":{"show_label":"","active":"","toggleSymb":"","icon":"","show_icon":"","details":"games","toggleSym1":"","typeDiscrib":"Ladder ball game","id":172,"name":"Ladder Ball Station","size":"10'x20'","type":"Amusement","expired":null,"rotate":null,"left_panel":null}},{"type":"Feature","geometry":{"type":"Point","coordinates":[-122.38412549999998,47.6671486]},"properties":{"show_label":"","active":"","toggleSymb":"","icon":"","show_icon":"","details":"games","toggleSym1":"","typeDiscrib":"Badminton game","id":173,"name":"Verity Badminton Station","size":"10'x20'","type":"Amusement","expired":null,"rotate":null,"left_panel":null}},{"type":"Feature","geometry":{"type":"Point","coordinates":[-122.38408340000001,47.66711011]},"properties":{"show_label":"","active":"","toggleSymb":"","icon":"","show_icon":"","details":"games","toggleSym1":"","typeDiscrib":"Giant jenga with 2x4's","id":174,"name":"Giant Jenga","size":"10'x10'","type":"Amusement","expired":null,"rotate":null,"left_panel":null}},{"type":"Feature","geometry":{"type":"Point","coordinates":[-122.38395880000002,47.66701575]},"properties":{"show_label":"","active":"","toggleSymb":"","icon":"","show_icon":"","details":"games","toggleSym1":"","typeDiscrib":"Bubbles","id":175,"name":"Clover Toys Bubble Station","size":"20'x30'","type":"Amusement","expired":null,"rotate":null,"left_panel":null}},{"type":"Feature","geometry":{"type":"Point","coordinates":[-122.3838566,47.66692712]},"properties":{"show_label":"","active":"","toggleSymb":"","icon":"","show_icon":"","details":"games","toggleSym1":"","typeDiscrib":"Aerial performance","id":176,"name":"Arcadia Aerial Performance","size":"20'x30'","type":"Amusement","expired":null,"rotate":null,"left_panel":null}},{"type":"Feature","geometry":{"type":"Point","coordinates":[-122.383781,47.66685335]},"properties":{"show_label":"","active":"","toggleSymb":"","icon":"","show_icon":"","details":"games","toggleSym1":"","typeDiscrib":"AstroTurf lounge area","id":177,"name":"AstroTurf Lounge","size":"20'x30'","type":"Amusement","expired":null,"rotate":null,"left_panel":null}},{"type":"Feature","geometry":{"type":"Point","coordinates":[-122.38374039999997,47.66681739]},"properties":{"show_label":"","active":"","toggleSymb":"","icon":"","show_icon":"","details":"games","toggleSym1":"","typeDiscrib":"Giant beer pong game set","id":178,"name":"Bucket Ball Game Station","size":"10'x10'","type":"Amusement","expired":null,"rotate":null,"left_panel":null}},{"type":"Feature","geometry":{"type":"Point","coordinates":[-122.38389353651445,47.66811058508344]},"properties":{"show_label":null,"active":null,"toggleSymb":null,"icon":null,"show_icon":null,"details":null,"toggleSym1":null,"typeDiscrib":"Research Questions Outreach","id":119,"name":"Harborview Medical Center","size":"10'x10'","type":"Non-Profit","expired":null,"rotate":null,"left_panel":null}},{"type":"Feature","geometry":{"type":"Point","coordinates":[-122.38365002798315,47.66675357177365]},"properties":{"show_label":"","active":"","toggleSymb":"","icon":"","show_icon":"","details":"games","toggleSym1":"","typeDiscrib":"Cornhole game","id":179,"name":"Cornhole Station #2","size":"20'x33'","type":"Amusement","expired":"","rotate":null,"left_panel":null}},{"type":"Feature","geometry":{"type":"Point","coordinates":[-122.3835619068393,47.666685626643414]},"properties":{"show_label":"","active":"","toggleSymb":"","icon":"","show_icon":"","details":"","toggleSym1":"","typeDiscrib":"Sponsor","id":180,"name":"All the Best Pet Care Shade Tent","size":"10'x10'","type":"Sponsor","expired":"","rotate":null,"left_panel":null}},{"type":"Feature","geometry":{"type":"Point","coordinates":[-122.38350826788218,47.666640903218294]},"properties":{"show_label":"","active":"","toggleSymb":"","icon":"","show_icon":"","details":"games","toggleSym1":"","typeDiscrib":"Pools for dogs to splash in","id":181,"name":"Doggie Splash Town Pool","size":"10'x10'","type":"Amusement","expired":null,"rotate":null,"left_panel":null}},{"type":"Feature","geometry":{"type":"Point","coordinates":[-122.38573173036724,47.670629092997345]},"properties":{"show_label":"","active":"","toggleSymb":"","icon":"","show_icon":"","details":"","toggleSym1":"","typeDiscrib":"Festi-Bowl sponsor and skateboard brand","id":192,"name":"Allez Oop","size":"10'x10'","type":"Sponsor","expired":"","rotate":null,"left_panel":null}},{"type":"Feature","geometry":{"type":"Point","coordinates":[-122.38585784577248,47.67071810297509]},"properties":{"show_label":"","active":"","toggleSymb":"","icon":"svg_WB","show_icon":"","details":"","toggleSym1":"","typeDiscrib":"Restroom facilities","id":193.1,"name":"Honey Buckets","size":"","type":"Restroom","expired":"","rotate":null,"left_panel":null}},{"type":"Feature","geometry":{"type":"Point","coordinates":[-122.38582464070373,47.67069402299609]},"properties":{"show_label":"","active":"","toggleSymb":"","icon":"svg_WB","show_icon":"","details":"","toggleSym1":"","typeDiscrib":"Restroom facilities","id":193.2,"name":"Honey Buckets","size":"","type":"Restroom","expired":"","rotate":null,"left_panel":null}},{"type":"Feature","geometry":{"type":"Point","coordinates":[-122.38540574599085,47.67069574299495]},"properties":{"show_label":"","active":"","toggleSymb":"","icon":"","show_icon":"","details":"games","toggleSym1":"","typeDiscrib":"6 bounce houses","id":194,"name":"Amusement on Demand Bounce Houses","size":"","type":"Amusement","expired":"","rotate":null,"left_panel":null}},{"type":"Feature","geometry":{"type":"Point","coordinates":[-122.3848856331266,47.6703757554951]},"properties":{"show_label":"","active":"","toggleSymb":"","icon":"","show_icon":"","details":"","toggleSym1":"","typeDiscrib":"Church booth","id":183,"name":"St. Luke's Church","size":"10'x10'","type":"Non-Profit","expired":"","rotate":null,"left_panel":null}},{"type":"Feature","geometry":{"type":"Point","coordinates":[-122.38488563312654,47.67035132798189]},"properties":{"show_label":"","active":"","toggleSymb":"","icon":"","show_icon":"","details":"","toggleSym1":"","typeDiscrib":"Library booth","id":184,"name":"Ballard Library","size":"10'x10'","type":"Non-Profit","expired":"","rotate":null,"left_panel":null}},{"type":"Feature","geometry":{"type":"Point","coordinates":[-122.38488563312654,47.67032384701731]},"properties":{"show_label":"","active":"","toggleSymb":"","icon":"","show_icon":"","details":"","toggleSym1":"","typeDiscrib":"Face painting","id":185,"name":"Tiny Art Face Painting","size":"10'x10'","type":"Amusement","expired":"","rotate":null,"left_panel":null}},{"type":"Feature","geometry":{"type":"Point","coordinates":[-122.3848901675218,47.6704658318492]},"properties":{"show_label":"","active":"","toggleSymb":"","icon":"svg_WB","show_icon":"","details":"","toggleSym1":"","typeDiscrib":"Restroom facilities","id":193.3,"name":"Honey Buckets","size":"","type":"Restroom","expired":"","rotate":null,"left_panel":null}},{"type":"Feature","geometry":{"type":"Point","coordinates":[-122.3848901675218,47.670433770791675]},"properties":{"show_label":"","active":"","toggleSymb":"","icon":"svg_WB","show_icon":"","details":"","toggleSym1":"","typeDiscrib":"Restroom facilities","id":193.4,"name":"Honey Buckets","size":"","type":"Restroom","expired":"","rotate":null,"left_panel":null}},{"type":"Feature","geometry":{"type":"Point","coordinates":[-122.38512482247643,47.670552091263325]},"properties":{"show_label":"","active":"","toggleSymb":"","icon":"","show_icon":"","details":"games","toggleSym1":"","typeDiscrib":"Parachute game","id":195,"name":"Parachute","size":"","type":"Amusement","expired":"","rotate":null,"left_panel":null}},{"type":"Feature","geometry":{"type":"Point","coordinates":[-122.38519057120766,47.670449801322896]},"properties":{"show_label":"","active":"","toggleSymb":"","icon":"","show_icon":"","details":"games","toggleSym1":"","typeDiscrib":"Sidewalk chalk, hula hoops, and bubbles for kids of all ages","id":182,"name":"Illumination Learning Studio","size":"","type":"Amusement","expired":"","rotate":null,"left_panel":null}},{"type":"Feature","geometry":{"type":"Point","coordinates":[-122.38484142277287,47.67075209041837]},"properties":{"show_label":"","active":"","toggleSymb":"","icon":"","show_icon":"","details":"","toggleSym1":"","typeDiscrib":"Seattle Fire Department Truck(s)","id":196,"name":"Fire Trucks","size":"","type":"Fire Trucks","expired":"","rotate":null,"left_panel":null}},{"type":"Feature","geometry":{"type":"Point","coordinates":[-122.38507267693097,47.67027422856971]},"properties":{"show_label":"","active":"","toggleSymb":"","icon":"","show_icon":"","details":"","toggleSym1":"","typeDiscrib":"Gelato","id":186,"name":"Nutty Squirrel Gelato","size":"10'x10'","type":"Food","expired":"","rotate":null,"left_panel":null}},{"type":"Feature","geometry":{"type":"Point","coordinates":[-122.38511802088357,47.67027422856971]},"properties":{"show_label":"","active":"","toggleSymb":"","icon":"","show_icon":"","details":"","toggleSym1":"","typeDiscrib":"Iced teas and lemonades","id":187,"name":"Wicked Palmer","size":"10'x10'","type":"Food","expired":"","rotate":null,"left_panel":null}},{"type":"Feature","geometry":{"type":"Point","coordinates":[-122.38522422492252,47.670272844977724]},"properties":{"show_label":"","active":"","toggleSymb":"","icon":"","show_icon":"","details":"","toggleSym1":"","typeDiscrib":"Girl Scout booth","id":188,"name":"Girl Scout Troop 40827","size":"10'x10'","type":"Non-Profit","expired":"","rotate":null,"left_panel":null}},{"type":"Feature","geometry":{"type":"Point","coordinates":[-122.38526900207569,47.67027265413746]},"properties":{"show_label":"","active":"","toggleSymb":"","icon":"","show_icon":"","details":"","toggleSym1":"","typeDiscrib":"Boy Scout booth","id":189,"name":"Boy Scout Troop 827","size":"10'x10'","type":"Non-Profit","expired":"","rotate":null,"left_panel":null}},{"type":"Feature","geometry":{"type":"Point","coordinates":[-122.38567695594907,47.67018877976878]},"properties":{"show_label":"","active":"","toggleSymb":"","icon":"","show_icon":"","details":"","toggleSym1":"","typeDiscrib":"Mobile Police Bus","id":197,"name":"Seattle Police Mobile Precinct Unit","size":"","type":"Police","expired":"","rotate":null,"left_panel":null}},{"type":"Feature","geometry":{"type":"Point","coordinates":[-122.38533228635788,47.66778072627016]},"properties":{"show_label":null,"active":null,"toggleSymb":null,"icon":"svg_WB","show_icon":null,"details":null,"toggleSym1":null,"typeDiscrib":"Restroom facilities","id":193.5,"name":"Honey Buckets","size":null,"type":"Restroom","expired":null,"rotate":null,"left_panel":null}},{"type":"Feature","geometry":{"type":"Point","coordinates":[-122.38473683595657,47.668669406263234]},"properties":{"show_label":null,"active":null,"toggleSymb":null,"icon":"svg_contestEating","show_icon":null,"details":null,"toggleSym1":null,"typeDiscrib":null,"id":5555,"name":"Lutefisk Contest","size":null,"type":"Entertainment","expired":null,"rotate":null,"left_panel":true}},{"type":"Feature","geometry":{"type":"Point","coordinates":[-122.38476902246475,47.66853755022836]},"properties":{"show_label":null,"active":null,"toggleSymb":null,"icon":"svg_info","show_icon":null,"details":null,"toggleSym1":null,"typeDiscrib":null,"id":5554,"name":"SeafoodFest Info","size":null,"type":"Info Booth","expired":null,"rotate":null,"left_panel":true}},{"type":"Feature","geometry":{"type":"Point","coordinates":[-122.38386404504945,47.66808961670747]},"properties":{"show_label":"","active":"","toggleSymb":"","icon":"","show_icon":"","details":"","toggleSym1":"","typeDiscrib":"Non-profit fraternal order organization","id":"119B","name":"Salmon Bay Eagles","size":"10'x10","type":"Non-Profit","expired":"","rotate":null,"left_panel":null}},{"type":"Feature","geometry":{"type":"Polygon","coordinates":[[[-122.38472727267447,47.667846996745006],[-122.38478193307787,47.667846948438154],[-122.38478122471639,47.66768132135822],[-122.3849372508646,47.66778534924358],[-122.38494611056728,47.667766048839944],[-122.3847345371467,47.667619288518395],[-122.3847282067257,47.66762573147212],[-122.38472727267447,47.667846996745006]]]},"properties":{"show_label":"","active":"","toggleSymb":"","icon":"","show_icon":"","details":null,"toggleSym1":null,"typeDiscrib":null,"id":9996,"name":"VIP Area","size":null,"type":"Amusement","expired":null,"rotate":45,"left_panel":null}},{"type":"Feature","geometry":{"type":"Polygon","coordinates":[[[-122.38469759754508,47.66757226048443],[-122.38468337256774,47.66755948776159],[-122.38473197457381,47.66751105782574],[-122.38474540927461,47.66752383056044],[-122.38469759754508,47.66757226048443]]]},"properties":{"show_label":null,"active":null,"toggleSymb":null,"icon":null,"show_icon":null,"details":null,"toggleSym1":null,"typeDiscrib":null,"id":9997,"name":"Main Stage","size":null,"type":"Amusement","expired":null,"rotate":null,"left_panel":true}},{"type":"Feature","geometry":{"type":"Polygon","coordinates":[[[-122.3846790260468,47.667551238698714],[-122.38466480106945,47.66753846597587],[-122.38471340307552,47.66749003604003],[-122.38472683777638,47.66750280877473],[-122.3846790260468,47.667551238698714]]]},"properties":{"show_label":null,"active":null,"toggleSymb":null,"icon":null,"show_icon":null,"details":null,"toggleSym1":null,"typeDiscrib":null,"id":9998,"name":"Back Stage","size":null,"type":"Amusement","expired":null,"rotate":null,"left_panel":null}},{"type":"Feature","geometry":{"type":"Polygon","coordinates":[[[-122.38582787394608,47.66836390974284],[-122.38494611043205,47.667766048531135],[-122.38493724964928,47.66778534860657],[-122.38478122361835,47.667681321048114],[-122.38478193609774,47.667846933841325],[-122.38472724222834,47.66784699764194],[-122.38472820283823,47.66762571629623],[-122.38479763139867,47.667555325463674],[-122.38587814420896,47.66828285717026],[-122.38582787394608,47.66836390974284]]]},"properties":{"show_label":true,"active":null,"toggleSymb":null,"icon":null,"show_icon":null,"details":null,"toggleSym1":null,"typeDiscrib":null,"id":9999,"name":"Beer Garden","size":null,"type":"Amusement","expired":null,"rotate":45,"left_panel":true}},{"type":"Feature","geometry":{"type":"Polygon","coordinates":[[[-122.38479283679374,47.66880002347348],[-122.38488844746524,47.66880033344038],[-122.38488938607384,47.669369768921115],[-122.38479262846249,47.66936958279071],[-122.38479283679374,47.66880002347348]]]},"properties":{"show_label":true,"active":"false","toggleSymb":"keyboard_arrow_up","icon":null,"show_icon":"false","details":null,"toggleSym1":null,"typeDiscrib":null,"id":301,"name":"Trident Seafoods Alder-smoked Salmon","size":null,"type":"Food","expired":null,"rotate":90,"left_panel":true}},{"type":"Feature","geometry":{"type":"Polygon","coordinates":[[[-122.38481078982335,47.66983451162218],[-122.38481210485338,47.66955450002944],[-122.38488469728497,47.669554537365734],[-122.38488338207253,47.66983302724445],[-122.38481078982335,47.66983451162218]]]},"properties":{"show_label":true,"active":"false","toggleSymb":"keyboard_arrow_up","icon":null,"show_icon":null,"details":null,"toggleSym1":null,"typeDiscrib":null,"id":344,"name":"Big Purple Slide","size":null,"type":"Amusement","expired":null,"rotate":null,"left_panel":true}},{"type":"Feature","geometry":{"type":"Polygon","coordinates":[[[-122.38462611720382,47.66748616991782],[-122.38458489563476,47.667509557108076],[-122.3831346781825,47.66633160397732],[-122.38317710242336,47.66630915209112],[-122.38462611720382,47.66748616991782]]]},"properties":{"show_label":true,"active":"false","toggleSymb":"keyboard_arrow_up","icon":null,"show_icon":null,"details":null,"toggleSym1":null,"typeDiscrib":null,"id":349,"name":"Game Plank","size":null,"type":"Amusement","expired":null,"rotate":50,"left_panel":true}},{"type":"Feature","geometry":{"type":"Polygon","coordinates":[[[-122.38479836620957,47.67090255196966],[-122.38469045795074,47.6709010324986],[-122.38468396153502,47.6698361439624],[-122.3847917594826,47.66983614619364],[-122.3847910783553,47.67014563238319],[-122.38548584542093,47.67014857346498],[-122.38548711912796,47.670221171062174],[-122.3847913060199,47.67021822555638],[-122.38479836620957,47.67090255196966]]]},"properties":{"show_label":true,"active":"false","toggleSymb":"keyboard_arrow_up","icon":null,"show_icon":null,"details":null,"toggleSym1":null,"typeDiscrib":null,"id":351,"name":"Kid's Deck","size":null,"type":"Amusement","expired":null,"rotate":null,"left_panel":true}},{"type":"Feature","geometry":{"type":"Polygon","coordinates":[[[-122.38574941633266,47.67031887574441],[-122.38578884660978,47.67040416845895],[-122.38579630148774,47.670461637501525],[-122.38578668556238,47.670488183188795],[-122.38577067982948,47.67051145300618],[-122.38571589333128,47.67055641811512],[-122.38564451088928,47.67059921049878],[-122.38549732071328,47.67052309333033],[-122.38549838008385,47.67045208439667],[-122.38552608215394,47.67041030924871],[-122.38556484725638,47.67036701317991],[-122.38561054318501,47.670315969071595],[-122.38574941633266,47.67031887574441]]]},"properties":{"show_label":true,"active":false,"toggleSymb":"keyboard_arrow_up","icon":null,"show_icon":null,"details":null,"toggleSym1":null,"typeDiscrib":null,"id":191,"name":"Festi-Bowl","size":null,"type":"Amusement","expired":null,"rotate":null,"left_panel":true}},{"type":"Feature","geometry":{"type":"Polygon","coordinates":[[[-122.38546609491368,47.67049375176304],[-122.38554782750828,47.670377655466105],[-122.38551590071347,47.67036475586159],[-122.3854316139753,47.67048171215906],[-122.38546609491368,47.67049375176304]]]},"properties":{"show_label":"","active":"","toggleSymb":"","icon":"","show_icon":"","details":null,"toggleSym1":null,"typeDiscrib":null,"id":190,"name":"Kid's Deck Stage","size":null,"type":"Amusement","expired":null,"rotate":null,"left_panel":null}}]}