{"type":"FeatureCollection","features":[{"type":"Feature","properties":{"show_label":"","active":"","toggleSymb":"","icon":"","show_icon":"","details":"","toggleSym1":"","typeDiscrib":"Sponsor","id":1.0,"name":"Ofo Bikes","size":"10'x10","type":"Sponsor","expired":null,"rotate":null,"left_panel":null},"geometry":{"type":"Point","coordinates":[-122.3872625,47.66872134]}},{"type":"Feature","properties":{"show_label":"","active":"","toggleSymb":"","icon":"","show_icon":"","details":"","toggleSym1":"","typeDiscrib":"Jewelry","id":2.0,"name":"West Coast Sea Glass","size":"10'x10","type":"A\/C","expired":null,"rotate":null,"left_panel":null},"geometry":{"type":"Point","coordinates":[-122.3872625,47.66870294]}},{"type":"Feature","properties":{"show_label":"","active":"","toggleSymb":"","icon":"","show_icon":"","details":"","toggleSym1":"","typeDiscrib":"Sponsor","id":3.0,"name":"Ofo Bikes","size":"10'x10","type":"Sponsor","expired":null,"rotate":null,"left_panel":null},"geometry":{"type":"Point","coordinates":[-122.3872341,47.66872134]}},{"type":"Feature","properties":{"show_label":"","active":"","toggleSymb":"","icon":"","show_icon":"","details":"","toggleSym1":"","typeDiscrib":"Hand-made sweaters","id":4.0,"name":"Sweetie Sweaters","size":"10'x10","type":"A\/C","expired":null,"rotate":null,"left_panel":null},"geometry":{"type":"Point","coordinates":[-122.3872341,47.66870294]}},{"type":"Feature","properties":{"show_label":"","active":"","toggleSymb":"","icon":"","show_icon":"","details":"","toggleSym1":"","typeDiscrib":"Sponsor","id":5.0,"name":"Ofo Booth","size":"10'x10","type":"Sponsor","expired":null,"rotate":null,"left_panel":null},"geometry":{"type":"Point","coordinates":[-122.3871571,47.66872109]}},{"type":"Feature","properties":{"show_label":"","active":"","toggleSymb":"","icon":"","show_icon":"","details":"","toggleSym1":"","typeDiscrib":"Pyschic","id":6.0,"name":"The Psychic Temple","size":"10'x10","type":"A\/C","expired":null,"rotate":null,"left_panel":null},"geometry":{"type":"Point","coordinates":[-122.3871574,47.66870182]}},{"type":"Feature","properties":{"show_label":"","active":"","toggleSymb":"","icon":"","show_icon":"","details":"","toggleSym1":"","typeDiscrib":"Non-profit emergency communication organization","id":7.0,"name":"Western Washington Medical Services Communications","size":"10'x10","type":"Non-Profit","expired":null,"rotate":null,"left_panel":null},"geometry":{"type":"Point","coordinates":[-122.3871273,47.66872109]}},{"type":"Feature","properties":{"show_label":"","active":"","toggleSymb":"","icon":"","show_icon":"","details":"","toggleSym1":"","typeDiscrib":"Paintings","id":8.0,"name":"Renee Staeck","size":"10'x10","type":"A\/C","expired":null,"rotate":null,"left_panel":null},"geometry":{"type":"Point","coordinates":[-122.3871273,47.66870206]}},{"type":"Feature","properties":{"show_label":"","active":"","toggleSymb":"","icon":"","show_icon":"","details":"","toggleSym1":"","typeDiscrib":"Ethnic-inspired crafts and jewelry","id":9.0,"name":"ETH-YO Artifacts","size":"10'x10","type":"A\/C","expired":null,"rotate":null,"left_panel":null},"geometry":{"type":"Point","coordinates":[-122.3870466,47.66872109]}},{"type":"Feature","properties":{"show_label":"","active":"","toggleSymb":"","icon":"","show_icon":"","details":"","toggleSym1":"","typeDiscrib":"Olive oils","id":10.0,"name":"Olive Branch \/ A Taste of Eden","size":"10'x10","type":"A\/C","expired":null,"rotate":null,"left_panel":null},"geometry":{"type":"Point","coordinates":[-122.387046,47.66870199]}},{"type":"Feature","properties":{"show_label":"","active":"","toggleSymb":"","icon":"","show_icon":"","details":"","toggleSym1":"","typeDiscrib":"Non-profit fraternal order organization","id":11.0,"name":"Salmon Bay Eagles","size":"10'x10","type":"Non-Profit","expired":null,"rotate":null,"left_panel":null},"geometry":{"type":"Point","coordinates":[-122.3870166,47.66872134]}},{"type":"Feature","properties":{"show_label":"","active":"","toggleSymb":"","icon":"","show_icon":"","details":"","toggleSym1":"","typeDiscrib":"Clothing","id":12.0,"name":"Sabrina Shane Co.","size":"10'x10","type":"A\/C","expired":null,"rotate":null,"left_panel":null},"geometry":{"type":"Point","coordinates":[-122.3870166,47.66870224]}},{"type":"Feature","properties":{"show_label":"","active":"","toggleSymb":"","icon":"","show_icon":"","details":"","toggleSym1":"","typeDiscrib":"Wind spinners","id":13.0,"name":"NW Wind Spinners","size":"10'x10","type":"A\/C","expired":null,"rotate":null,"left_panel":null},"geometry":{"type":"Point","coordinates":[-122.3869452,47.66871993]}},{"type":"Feature","properties":{"show_label":"","active":"","toggleSymb":"","icon":"","show_icon":"","details":"","toggleSym1":"","typeDiscrib":"Non-profit","id":14.0,"name":"Lupus Foundation","size":"10'x10","type":"Non-Profit","expired":null,"rotate":null,"left_panel":null},"geometry":{"type":"Point","coordinates":[-122.3869453,47.66870034]}},{"type":"Feature","properties":{"show_label":"","active":"","toggleSymb":"","icon":"","show_icon":"","details":"","toggleSym1":"","typeDiscrib":"Silk clothing","id":15.0,"name":"Silk From the Hartz","size":"10'x10","type":"A\/C","expired":null,"rotate":null,"left_panel":null},"geometry":{"type":"Point","coordinates":[-122.3869152,47.66872012]}},{"type":"Feature","properties":{"show_label":"","active":"","toggleSymb":"","icon":"","show_icon":"","details":"","toggleSym1":"","typeDiscrib":"Bubbles","id":16.0,"name":"Northwest Sales","size":"10'x10","type":"A\/C","expired":null,"rotate":null,"left_panel":null},"geometry":{"type":"Point","coordinates":[-122.3869152,47.66870107]}},{"type":"Feature","properties":{"show_label":"","active":"","toggleSymb":"","icon":"","show_icon":"","details":"","toggleSym1":"","typeDiscrib":"Wooden jewelry","id":17.0,"name":"Valhalla Resin Works","size":"10'x10","type":"A\/C","expired":null,"rotate":null,"left_panel":null},"geometry":{"type":"Point","coordinates":[-122.3868341,47.66872159]}},{"type":"Feature","properties":{"show_label":"","active":"","toggleSymb":"","icon":"","show_icon":"","details":"","toggleSym1":"","typeDiscrib":"Clothing and jewelry","id":18.0,"name":"Wayi Bamboo","size":"10'x10","type":"A\/C","expired":null,"rotate":null,"left_panel":null},"geometry":{"type":"Point","coordinates":[-122.3868341,47.66870254]}},{"type":"Feature","properties":{"show_label":"","active":"","toggleSymb":"","icon":"","show_icon":"","details":"","toggleSym1":"","typeDiscrib":"Alaskan Way Viaduct Replacement Program","id":19.0,"name":"EnviroIssues \/ WSDOT","size":"10'x10","type":"Non-Profit","expired":null,"rotate":null,"left_panel":null},"geometry":{"type":"Point","coordinates":[-122.3868047,47.66872183]}},{"type":"Feature","properties":{"show_label":"","active":"","toggleSymb":"","icon":"","show_icon":"","details":"","toggleSym1":"","typeDiscrib":"Caricatures","id":20.0,"name":"Over the Line Art","size":"10'x10","type":"A\/C","expired":null,"rotate":null,"left_panel":null},"geometry":{"type":"Point","coordinates":[-122.3868046,47.66870254]}},{"type":"Feature","properties":{"show_label":"","active":"","toggleSymb":"","icon":"","show_icon":"","details":"","toggleSym1":"","typeDiscrib":"The West Seattle and Ballard Link Extention project","id":21.0,"name":"EnviroIssues \/ Sound Transit","size":"10'x10","type":"Non-Profit","expired":null,"rotate":null,"left_panel":null},"geometry":{"type":"Point","coordinates":[-122.3867217,47.66872078]}},{"type":"Feature","properties":{"show_label":"","active":"","toggleSymb":"","icon":"","show_icon":"","details":"","toggleSym1":"","typeDiscrib":"Hats","id":22.0,"name":"Classic Collection Hats","size":"10'x20'","type":"A\/C","expired":null,"rotate":null,"left_panel":null},"geometry":{"type":"Point","coordinates":[-122.3867212,47.66870157]}},{"type":"Feature","properties":{"show_label":"","active":"","toggleSymb":"","icon":"","show_icon":"","details":"","toggleSym1":"","typeDiscrib":"Non-profit local radio station","id":23.0,"name":"KFBG 107.3 FM","size":"10'x10","type":"Non-Profit","expired":null,"rotate":null,"left_panel":null},"geometry":{"type":"Point","coordinates":[-122.3866917,47.6687206]}},{"type":"Feature","properties":{"show_label":"","active":"","toggleSymb":"","icon":"","show_icon":"","details":"","toggleSym1":"","typeDiscrib":"Hats","id":24.0,"name":"Classic Collection Hats","size":"10'x20'","type":"A\/C","expired":null,"rotate":null,"left_panel":null},"geometry":{"type":"Point","coordinates":[-122.3866917,47.66870157]}},{"type":"Feature","properties":{"show_label":"","active":"","toggleSymb":"","icon":"","show_icon":"","details":"","toggleSym1":"","typeDiscrib":"Sponsor","id":25.0,"name":"Smith Brothers Farms","size":"10'x10","type":"Sponsor","expired":null,"rotate":null,"left_panel":null},"geometry":{"type":"Point","coordinates":[-122.3866099,47.66872134]}},{"type":"Feature","properties":{"show_label":"","active":"","toggleSymb":"","icon":"","show_icon":"","details":"","toggleSym1":"","typeDiscrib":"Sponsor","id":26.0,"name":"Renewal by Anderson","size":"10'x10","type":"Sponsor","expired":null,"rotate":null,"left_panel":null},"geometry":{"type":"Point","coordinates":[-122.3866093,47.66870174]}},{"type":"Feature","properties":{"show_label":"","active":"","toggleSymb":"","icon":"","show_icon":"","details":"","toggleSym1":"","typeDiscrib":"Sponsor","id":27.0,"name":"Sugar Plum","size":"10'x10","type":"Sponsor","expired":null,"rotate":null,"left_panel":null},"geometry":{"type":"Point","coordinates":[-122.3865805,47.66872159]}},{"type":"Feature","properties":{"show_label":"","active":"","toggleSymb":"","icon":"","show_icon":"","details":"","toggleSym1":"","typeDiscrib":"Sponsor","id":28.0,"name":"Gutter Helmet","size":"10'x10","type":"Sponsor","expired":null,"rotate":null,"left_panel":null},"geometry":{"type":"Point","coordinates":[-122.3865804,47.66870174]}},{"type":"Feature","properties":{"show_label":"","active":"","toggleSymb":"","icon":"","show_icon":"","details":"","toggleSym1":"","typeDiscrib":"Sponsor","id":29.0,"name":"Integrated Rehab Group","size":"10'x10'","type":"Sponsor","expired":null,"rotate":null,"left_panel":null},"geometry":{"type":"Point","coordinates":[-122.3865024,47.66872052]}},{"type":"Feature","properties":{"show_label":"","active":"","toggleSymb":"","icon":"","show_icon":"","details":"","toggleSym1":"","typeDiscrib":"Clothing","id":30.0,"name":"Uphill Designs Co.","size":"10'x20'","type":"A\/C","expired":null,"rotate":null,"left_panel":null},"geometry":{"type":"Point","coordinates":[-122.3865023,47.66870132]}},{"type":"Feature","properties":{"show_label":"","active":"","toggleSymb":"","icon":"","show_icon":"","details":"","toggleSym1":"","typeDiscrib":"Jewelry","id":31.0,"name":"Cat's Creations","size":"10'x10","type":"A\/C","expired":null,"rotate":null,"left_panel":null},"geometry":{"type":"Point","coordinates":[-122.386473,47.6687206]}},{"type":"Feature","properties":{"show_label":"","active":"","toggleSymb":"","icon":"","show_icon":"","details":"","toggleSym1":"","typeDiscrib":"Clothing","id":32.0,"name":"Uphill Designs Co.","size":"10'x20'","type":"A\/C","expired":null,"rotate":null,"left_panel":null},"geometry":{"type":"Point","coordinates":[-122.386473,47.66870157]}},{"type":"Feature","properties":{"show_label":"","active":"","toggleSymb":"","icon":"","show_icon":"","details":"","toggleSym1":"","typeDiscrib":"Clothing","id":33.0,"name":"Un Solo Pueblo","size":"10'x20","type":"A\/C","expired":null,"rotate":null,"left_panel":null},"geometry":{"type":"Point","coordinates":[-122.3863907,47.66872145]}},{"type":"Feature","properties":{"show_label":"","active":"","toggleSymb":"","icon":"","show_icon":"","details":"","toggleSym1":"","typeDiscrib":"Metal art","id":34.0,"name":"Trapp Industries","size":"10'x20'","type":"A\/C","expired":null,"rotate":null,"left_panel":null},"geometry":{"type":"Point","coordinates":[-122.3863903,47.66870258]}},{"type":"Feature","properties":{"show_label":"","active":"","toggleSymb":"","icon":"","show_icon":"","details":"","toggleSym1":"","typeDiscrib":"Clothing","id":35.0,"name":"Un Solo Pueblo","size":"10'x20","type":"A\/C","expired":null,"rotate":null,"left_panel":null},"geometry":{"type":"Point","coordinates":[-122.3863605,47.66872174]}},{"type":"Feature","properties":{"show_label":"","active":"","toggleSymb":"","icon":"","show_icon":"","details":"","toggleSym1":"","typeDiscrib":"Metal art","id":36.0,"name":"Trapp Industries","size":"10'x20'","type":"A\/C","expired":null,"rotate":null,"left_panel":null},"geometry":{"type":"Point","coordinates":[-122.3863603,47.66870254]}},{"type":"Feature","properties":{"show_label":"","active":"","toggleSymb":"","icon":"","show_icon":"","details":"","toggleSym1":"","typeDiscrib":"Sponsor","id":37.0,"name":"Getaround","size":"10'x10","type":"Sponsor","expired":null,"rotate":null,"left_panel":null},"geometry":{"type":"Point","coordinates":[-122.3862816,47.66872159]}},{"type":"Feature","properties":{"show_label":"","active":"","toggleSymb":"","icon":"","show_icon":"","details":"","toggleSym1":"","typeDiscrib":"Sponsor","id":38.0,"name":"Patagonia","size":"10'x20'","type":"Sponsor","expired":null,"rotate":null,"left_panel":null},"geometry":{"type":"Point","coordinates":[-122.386281,47.66870268]}},{"type":"Feature","properties":{"show_label":"","active":"","toggleSymb":"","icon":"","show_icon":"","details":"","toggleSym1":"","typeDiscrib":"Sponsor","id":39.0,"name":"BECU","size":"10'x10","type":"Sponsor","expired":null,"rotate":null,"left_panel":null},"geometry":{"type":"Point","coordinates":[-122.3862517,47.66872183]}},{"type":"Feature","properties":{"show_label":"","active":"","toggleSymb":"","icon":"","show_icon":"","details":"","toggleSym1":"","typeDiscrib":"Sponsor","id":40.0,"name":"Patagonia","size":"10'x20'","type":"Sponsor","expired":null,"rotate":null,"left_panel":null},"geometry":{"type":"Point","coordinates":[-122.3862517,47.6687028]}},{"type":"Feature","properties":{"show_label":"","active":"","toggleSymb":"","icon":"","show_icon":"","details":"","toggleSym1":"","typeDiscrib":"Sponsor","id":41.0,"name":"Market Street Shoes","size":"10'x10","type":"Sponsor","expired":null,"rotate":null,"left_panel":null},"geometry":{"type":"Point","coordinates":[-122.3861012,47.66872183]}},{"type":"Feature","properties":{"show_label":"","active":"","toggleSymb":"","icon":"","show_icon":"","details":"","toggleSym1":"","typeDiscrib":"Baby goods","id":42.0,"name":"Original Baby Bundle \/ Mixed Metals","size":"10'x20'","type":"A\/C","expired":null,"rotate":null,"left_panel":null},"geometry":{"type":"Point","coordinates":[-122.3861012,47.66870237]}},{"type":"Feature","properties":{"show_label":"","active":"","toggleSymb":"","icon":"","show_icon":"","details":"","toggleSym1":"","typeDiscrib":"Jewelry","id":43.0,"name":"Amora Piedra","size":"10'x10","type":"A\/C","expired":null,"rotate":null,"left_panel":null},"geometry":{"type":"Point","coordinates":[-122.3860718,47.66872208]}},{"type":"Feature","properties":{"show_label":"","active":"","toggleSymb":"","icon":"","show_icon":"","details":"","toggleSym1":"","typeDiscrib":"Baby goods","id":44.0,"name":"Original Baby Bundle \/ Mixed Metals","size":"10'x20'","type":"A\/C","expired":null,"rotate":null,"left_panel":null},"geometry":{"type":"Point","coordinates":[-122.3860723,47.66870237]}},{"type":"Feature","properties":{"show_label":"","active":"","toggleSymb":"","icon":"","show_icon":"","details":"","toggleSym1":"","typeDiscrib":"Ceramic art","id":45.0,"name":"Kelsey Melville","size":"10'x10","type":"A\/C","expired":null,"rotate":null,"left_panel":null},"geometry":{"type":"Point","coordinates":[-122.3859979,47.66872225]}},{"type":"Feature","properties":{"show_label":"","active":"","toggleSymb":"","icon":"","show_icon":"","details":"","toggleSym1":"","typeDiscrib":"Sponsor","id":46.0,"name":"Hubert Lemonade","size":"10'x10","type":"Sponsor","expired":null,"rotate":null,"left_panel":null},"geometry":{"type":"Point","coordinates":[-122.3859975,47.66870262]}},{"type":"Feature","properties":{"show_label":"","active":"","toggleSymb":"","icon":"","show_icon":"","details":"","toggleSym1":"","typeDiscrib":"Sponsor","id":47.0,"name":"Lasik Vision","size":"10'x10","type":"Sponsor","expired":null,"rotate":null,"left_panel":null},"geometry":{"type":"Point","coordinates":[-122.385968,47.66872208]}},{"type":"Feature","properties":{"show_label":"","active":"","toggleSymb":"","icon":"","show_icon":"","details":"","toggleSym1":"","typeDiscrib":"Paper art","id":48.0,"name":"Linda McClamrock Recycled Paper Collage","size":"10'x10","type":"A\/C","expired":null,"rotate":null,"left_panel":null},"geometry":{"type":"Point","coordinates":[-122.385968,47.66870262]}},{"type":"Feature","properties":{"show_label":"","active":"","toggleSymb":"","icon":"","show_icon":"","details":"","toggleSym1":"","typeDiscrib":"Jewelry","id":49.0,"name":"Semilla Designs","size":"10'x10","type":"A\/C","expired":null,"rotate":null,"left_panel":null},"geometry":{"type":"Point","coordinates":[-122.3858837,47.66872208]}},{"type":"Feature","properties":{"show_label":"","active":"","toggleSymb":"","icon":"","show_icon":"","details":"","toggleSym1":"","typeDiscrib":"Metal art","id":50.0,"name":"Freeborn Metal Art","size":"10'x20'","type":"A\/C","expired":null,"rotate":null,"left_panel":null},"geometry":{"type":"Point","coordinates":[-122.3858828,47.66870256]}},{"type":"Feature","properties":{"show_label":"","active":"","toggleSymb":"","icon":"","show_icon":"","details":"","toggleSym1":"","typeDiscrib":"Jewelry","id":51.0,"name":"Pearls by Nature","size":"10'x10","type":"A\/C","expired":null,"rotate":null,"left_panel":null},"geometry":{"type":"Point","coordinates":[-122.3858535,47.66872183]}},{"type":"Feature","properties":{"show_label":"","active":"","toggleSymb":"","icon":"","show_icon":"","details":"","toggleSym1":"","typeDiscrib":"Metal art","id":52.0,"name":"Freeborn Metal Art","size":"10'x20'","type":"A\/C","expired":null,"rotate":null,"left_panel":null},"geometry":{"type":"Point","coordinates":[-122.3858535,47.6687028]}},{"type":"Feature","properties":{"show_label":"","active":"","toggleSymb":"","icon":"","show_icon":"","details":"","toggleSym1":"","typeDiscrib":"Wooden baskets","id":53.0,"name":"Amazing Wood Baskets","size":"10'x10","type":"A\/C","expired":null,"rotate":null,"left_panel":null},"geometry":{"type":"Point","coordinates":[-122.3857757,47.66872208]}},{"type":"Feature","properties":{"show_label":"","active":"","toggleSymb":"","icon":"","show_icon":"","details":"","toggleSym1":"","typeDiscrib":"Sponsor","id":54.0,"name":"Reach Now","size":"10'x10","type":"Sponsor","expired":null,"rotate":null,"left_panel":null},"geometry":{"type":"Point","coordinates":[-122.3857757,47.66870262]}},{"type":"Feature","properties":{"show_label":"","active":"","toggleSymb":"","icon":"","show_icon":"","details":"","toggleSym1":"","typeDiscrib":"Jewelry","id":55.0,"name":"Andrea Designs","size":"10'x10","type":"A\/C","expired":null,"rotate":null,"left_panel":null},"geometry":{"type":"Point","coordinates":[-122.3857463,47.66872233]}},{"type":"Feature","properties":{"show_label":"","active":"","toggleSymb":"","icon":"","show_icon":"","details":"","toggleSym1":"","typeDiscrib":"Sponsor","id":56.0,"name":"Fit 36","size":"10'x10","type":"Sponsor","expired":null,"rotate":null,"left_panel":null},"geometry":{"type":"Point","coordinates":[-122.3857462,47.66870303]}},{"type":"Feature","properties":{"show_label":"","active":"","toggleSymb":"","icon":"","show_icon":"","details":"","toggleSym1":"","typeDiscrib":"Mustards","id":57.0,"name":"Mustard & Co.","size":"10'x10","type":"A\/C","expired":null,"rotate":null,"left_panel":null},"geometry":{"type":"Point","coordinates":[-122.3856661,47.6687224]}},{"type":"Feature","properties":{"show_label":"","active":"","toggleSymb":"","icon":"","show_icon":"","details":"","toggleSym1":"","typeDiscrib":"Sponsor","id":58.0,"name":"Alaska USA Federal Credit Union","size":"10'x10","type":"Sponsor","expired":null,"rotate":null,"left_panel":null},"geometry":{"type":"Point","coordinates":[-122.3856661,47.66870294]}},{"type":"Feature","properties":{"show_label":"","active":"","toggleSymb":"","icon":"","show_icon":"","details":"","toggleSym1":"","typeDiscrib":"Plush toys","id":59.0,"name":"Zoms","size":"10'x10","type":"A\/C","expired":null,"rotate":null,"left_panel":null},"geometry":{"type":"Point","coordinates":[-122.3856367,47.66872341]}},{"type":"Feature","properties":{"show_label":"","active":"","toggleSymb":"","icon":"","show_icon":"","details":"","toggleSym1":"","typeDiscrib":"Wooden art","id":60.0,"name":"Languid Decadence Artworks","size":"10'x10","type":"A\/C","expired":null,"rotate":null,"left_panel":null},"geometry":{"type":"Point","coordinates":[-122.3856367,47.66870319]}},{"type":"Feature","properties":{"show_label":"","active":"","toggleSymb":"","icon":"","show_icon":"","details":"","toggleSym1":"","typeDiscrib":"Handbags and leather goods","id":61.0,"name":"Huaracha Studios","size":"10'x10","type":"A\/C","expired":null,"rotate":null,"left_panel":null},"geometry":{"type":"Point","coordinates":[-122.3855566,47.66872326]}},{"type":"Feature","properties":{"show_label":"","active":"","toggleSymb":"","icon":"","show_icon":"","details":"","toggleSym1":"","typeDiscrib":"Jewelry","id":62.0,"name":"Seciwa's SW Native Jewelry & Crafts","size":"10'x10","type":"A\/C","expired":null,"rotate":null,"left_panel":null},"geometry":{"type":"Point","coordinates":[-122.3855562,47.66870402]}},{"type":"Feature","properties":{"show_label":"","active":"","toggleSymb":"","icon":"","show_icon":"","details":"","toggleSym1":"","typeDiscrib":"Seafood condiments and samples","id":63.0,"name":"Seattle Artisan Foods","size":"10'x10","type":"A\/C","expired":null,"rotate":null,"left_panel":null},"geometry":{"type":"Point","coordinates":[-122.3855267,47.6687231]}},{"type":"Feature","properties":{"show_label":"","active":"","toggleSymb":"","icon":"","show_icon":"","details":"","toggleSym1":"","typeDiscrib":"Candles","id":64.0,"name":"KlapNKlip Candles","size":"10'x10","type":"A\/C","expired":null,"rotate":null,"left_panel":null},"geometry":{"type":"Point","coordinates":[-122.3855267,47.66870447]}},{"type":"Feature","properties":{"show_label":"","active":"","toggleSymb":"","icon":"","show_icon":"","details":"","toggleSym1":"","typeDiscrib":"Non-profit union group","id":65.0,"name":"UFCW 21","size":"10'x10","type":"A\/C","expired":null,"rotate":null,"left_panel":null},"geometry":{"type":"Point","coordinates":[-122.3854517,47.66872269]}},{"type":"Feature","properties":{"show_label":"","active":"","toggleSymb":"","icon":"","show_icon":"","details":"","toggleSym1":"","typeDiscrib":"Clothing","id":66.0,"name":"MA Graphics","size":"10'x20'","type":"A\/C","expired":null,"rotate":null,"left_panel":null},"geometry":{"type":"Point","coordinates":[-122.3854516,47.66870333]}},{"type":"Feature","properties":{"show_label":"","active":"","toggleSymb":"","icon":"","show_icon":"","details":"","toggleSym1":"","typeDiscrib":"Travel accessories","id":67.0,"name":"Jeri-Oh's Travel Accessories","size":"10'x10","type":"A\/C","expired":null,"rotate":null,"left_panel":null},"geometry":{"type":"Point","coordinates":[-122.3854222,47.66872261]}},{"type":"Feature","properties":{"show_label":"","active":"","toggleSymb":"","icon":"","show_icon":"","details":"","toggleSym1":"","typeDiscrib":"Clothing","id":68.0,"name":"MA Graphics","size":"10'x20'","type":"A\/C","expired":null,"rotate":null,"left_panel":null},"geometry":{"type":"Point","coordinates":[-122.3854222,47.66870358]}},{"type":"Feature","properties":{"show_label":"","active":"","toggleSymb":"","icon":"","show_icon":"","details":"","toggleSym1":"","typeDiscrib":"40' Metro Bus","id":69.0,"name":"King Co. Metro","size":"10'x10","type":"A\/C","expired":null,"rotate":null,"left_panel":null},"geometry":{"type":"Point","coordinates":[-122.3853461,47.66872247]}},{"type":"Feature","properties":{"show_label":"","active":"","toggleSymb":"","icon":"","show_icon":"","details":"","toggleSym1":"","typeDiscrib":"Paintings","id":70.0,"name":"Tim Wistrom Fine Art Paintings","size":"10'x20'","type":"A\/C","expired":null,"rotate":null,"left_panel":null},"geometry":{"type":"Point","coordinates":[-122.3853455,47.66870383]}},{"type":"Feature","properties":{"show_label":"","active":"","toggleSymb":"","icon":"","show_icon":"","details":"","toggleSym1":"","typeDiscrib":"40' Metro Bus","id":71.0,"name":"King Co. Metro","size":"10'x10","type":"Sponsor","expired":null,"rotate":null,"left_panel":null},"geometry":{"type":"Point","coordinates":[-122.3853163,47.6687231]}},{"type":"Feature","properties":{"show_label":"","active":"","toggleSymb":"","icon":"","show_icon":"","details":"","toggleSym1":"","typeDiscrib":"Paintings","id":72.0,"name":"Tim Wistrom Fine Art Paintings","size":"10'x20'","type":"A\/C","expired":null,"rotate":null,"left_panel":null},"geometry":{"type":"Point","coordinates":[-122.3853171,47.66870383]}},{"type":"Feature","properties":{"show_label":"","active":"","toggleSymb":"","icon":"","show_icon":"","details":"","toggleSym1":"","typeDiscrib":"Wood working","id":73.0,"name":"Forest Life Creations","size":"10'x10","type":"A\/C","expired":null,"rotate":null,"left_panel":null},"geometry":{"type":"Point","coordinates":[-122.3852336,47.66872247]}},{"type":"Feature","properties":{"show_label":"","active":"","toggleSymb":"","icon":"","show_icon":"","details":"","toggleSym1":"","typeDiscrib":"Balsalmic and olive oils","id":74.0,"name":"Celia's Gourmet Foods","size":"10'x10","type":"A\/C","expired":null,"rotate":null,"left_panel":null},"geometry":{"type":"Point","coordinates":[-122.3852331,47.66870294]}},{"type":"Feature","properties":{"show_label":"","active":"","toggleSymb":"","icon":"","show_icon":"","details":"","toggleSym1":"","typeDiscrib":"Clothing","id":75.0,"name":"Pure Intent","size":"10'x10","type":"A\/C","expired":null,"rotate":null,"left_panel":null},"geometry":{"type":"Point","coordinates":[-122.3852037,47.66872222]}},{"type":"Feature","properties":{"show_label":"","active":"","toggleSymb":"","icon":"","show_icon":"","details":"","toggleSym1":"","typeDiscrib":"Cermaics","id":76.0,"name":"Cascadia Stoneware","size":"10'x10","type":"A\/C","expired":null,"rotate":null,"left_panel":null},"geometry":{"type":"Point","coordinates":[-122.3852037,47.66870319]}},{"type":"Feature","properties":{"show_label":"","active":"","toggleSymb":"","icon":"","show_icon":"","details":"","toggleSym1":"","typeDiscrib":"Baked goods mixes","id":77.0,"name":"Papa Ray's Market Place","size":"10'x10","type":"A\/C","expired":null,"rotate":null,"left_panel":null},"geometry":{"type":"Point","coordinates":[-122.3851265,47.66872247]}},{"type":"Feature","properties":{"show_label":"","active":"","toggleSymb":"","icon":"","show_icon":"","details":"","toggleSym1":"","typeDiscrib":"Art prints","id":78.0,"name":"Powerslide Design Co.","size":"10'x10","type":"A\/C","expired":null,"rotate":null,"left_panel":null},"geometry":{"type":"Point","coordinates":[-122.3851265,47.66870342]}},{"type":"Feature","properties":{"show_label":"","active":"","toggleSymb":"","icon":"","show_icon":"","details":"","toggleSym1":"","typeDiscrib":"Hot sauces","id":79.0,"name":"Ballyhoo Hot Sauce","size":"10'x10","type":"A\/C","expired":null,"rotate":null,"left_panel":null},"geometry":{"type":"Point","coordinates":[-122.3850972,47.66872189]}},{"type":"Feature","properties":{"show_label":"","active":"","toggleSymb":"","icon":"","show_icon":"","details":"","toggleSym1":"","typeDiscrib":"Handbags  ","id":80.0,"name":"Metamorphic","size":"10'x10","type":"A\/C","expired":null,"rotate":null,"left_panel":null},"geometry":{"type":"Point","coordinates":[-122.385097,47.66870301]}},{"type":"Feature","properties":{"show_label":"","active":"","toggleSymb":"","icon":"","show_icon":"","details":"","toggleSym1":"","typeDiscrib":"Plants","id":81.0,"name":"Terraria","size":"10'x10","type":"A\/C","expired":null,"rotate":null,"left_panel":null},"geometry":{"type":"Point","coordinates":[-122.3850197,47.66872287]}},{"type":"Feature","properties":{"show_label":"","active":"","toggleSymb":"","icon":"","show_icon":"","details":"","toggleSym1":"","typeDiscrib":"Sponsor","id":82.0,"name":"New Seasons","size":"10'x10","type":"Sponsor","expired":null,"rotate":null,"left_panel":null},"geometry":{"type":"Point","coordinates":[-122.3850197,47.66870372]}},{"type":"Feature","properties":{"show_label":"","active":"","toggleSymb":"","icon":"","show_icon":"","details":"","toggleSym1":"","typeDiscrib":"Sponsor","id":83.0,"name":"Full Circle","size":"10'x10","type":"Sponsor","expired":null,"rotate":null,"left_panel":null},"geometry":{"type":"Point","coordinates":[-122.3849904,47.66872299]}},{"type":"Feature","properties":{"show_label":"","active":"","toggleSymb":"","icon":"","show_icon":"","details":"","toggleSym1":"","typeDiscrib":"Comics and art","id":84.0,"name":"Grumpy Old Man's Comics","size":"10'x10","type":"A\/C","expired":null,"rotate":null,"left_panel":null},"geometry":{"type":"Point","coordinates":[-122.3849904,47.66870396]}},{"type":"Feature","properties":{"show_label":"","active":"","toggleSymb":"","icon":"","show_icon":"","details":"","toggleSym1":"","typeDiscrib":"Sponsor","id":85.0,"name":"UW Medicine","size":"10'x10","type":"Sponsor","expired":null,"rotate":null,"left_panel":null},"geometry":{"type":"Point","coordinates":[-122.3849384,47.66871313]}},{"type":"Feature","properties":{"show_label":"","active":"","toggleSymb":"","icon":"","show_icon":"","details":"","toggleSym1":"","typeDiscrib":"Sponsor","id":86.0,"name":"Gravity Payments","size":"10'x20'","type":"Sponsor","expired":null,"rotate":null,"left_panel":null},"geometry":{"type":"Point","coordinates":[-122.384837541563769,47.668604149864663]}},{"type":"Feature","properties":{"show_label":"","active":"","toggleSymb":"","icon":"","show_icon":"","details":"","toggleSym1":"","typeDiscrib":"Crabs and shellfish","id":87.0,"name":"Crab Shack \/ Shellshole","size":"10'x20'","type":"Food","expired":null,"rotate":null,"left_panel":null},"geometry":{"type":"Point","coordinates":[-122.384808,47.66849997]}},{"type":"Feature","properties":{"show_label":"","active":"","toggleSymb":"","icon":"","show_icon":"","details":"","toggleSym1":"","typeDiscrib":"N\/A","id":88.0,"name":"Reefer Trail for Shilshell","size":"10'x20'","type":"Food","expired":null,"rotate":null,"left_panel":null},"geometry":{"type":"Point","coordinates":[-122.3848073,47.66845364]}},{"type":"Feature","properties":{"show_label":"","active":"","toggleSymb":"","icon":"","show_icon":"","details":"","toggleSym1":"","typeDiscrib":"Ice cream  ","id":89.0,"name":"Island Creamery Concessions","size":"10'x20'","type":"Food","expired":null,"rotate":null,"left_panel":null},"geometry":{"type":"Point","coordinates":[-122.3848078,47.66840663]}},{"type":"Feature","properties":{"show_label":"","active":"","toggleSymb":"","icon":"","show_icon":"","details":"","toggleSym1":"","typeDiscrib":"Funnel Cakes","id":90.0,"name":"Sequim Valley","size":"10'x20'","type":"Food","expired":null,"rotate":null,"left_panel":null},"geometry":{"type":"Point","coordinates":[-122.3848075,47.66836161]}},{"type":"Feature","properties":{"show_label":"","active":"","toggleSymb":"","icon":"","show_icon":"","details":"","toggleSym1":"","typeDiscrib":"Mini donuts","id":91.0,"name":"Scouts Mini Donuts","size":"10'x10'","type":"Food","expired":null,"rotate":null,"left_panel":null},"geometry":{"type":"Point","coordinates":[-122.3848084,47.66832105]}},{"type":"Feature","properties":{"show_label":"","active":"","toggleSymb":"","icon":"","show_icon":"","details":"","toggleSym1":"","typeDiscrib":"Espresso","id":92.0,"name":"Egyptian Mug Coffee","size":"10'x10'","type":"Food","expired":null,"rotate":null,"left_panel":null},"geometry":{"type":"Point","coordinates":[-122.3848072,47.66828559]}},{"type":"Feature","properties":{"show_label":"","active":"","toggleSymb":"","icon":"","show_icon":"","details":"","toggleSym1":"","typeDiscrib":"Sponsor","id":93.0,"name":"Carter Subaru","size":"10'x10'","type":"Sponsor","expired":null,"rotate":null,"left_panel":null},"geometry":{"type":"Point","coordinates":[-122.3848079,47.66824589]}},{"type":"Feature","properties":{"show_label":"","active":"","toggleSymb":"","icon":"","show_icon":"","details":"","toggleSym1":"","typeDiscrib":"Sponsor","id":94.0,"name":"Carter Subaru Car","size":"Car","type":"Sponsor","expired":null,"rotate":null,"left_panel":null},"geometry":{"type":"Point","coordinates":[-122.384807,47.66820838]}},{"type":"Feature","properties":{"show_label":"","active":"","toggleSymb":"","icon":"","show_icon":"","details":"","toggleSym1":"","typeDiscrib":"Sponsor","id":95.0,"name":"Ken's Food","size":"10'x20'","type":"Sponsor","expired":null,"rotate":null,"left_panel":null},"geometry":{"type":"Point","coordinates":[-122.3846993,47.66814357]}},{"type":"Feature","properties":{"show_label":"","active":"","toggleSymb":"","icon":"","show_icon":"","details":"","toggleSym1":"","typeDiscrib":"Sponsor","id":96.0,"name":"Ballard Vox","size":"10'x10'","type":"Sponsor","expired":null,"rotate":null,"left_panel":null},"geometry":{"type":"Point","coordinates":[-122.3846987,47.66817639]}},{"type":"Feature","properties":{"show_label":"","active":"","toggleSymb":"","icon":"","show_icon":"","details":"","toggleSym1":"","typeDiscrib":"Organic drinks","id":97.0,"name":"Tiny's Organics","size":"10'x10'","type":"Food","expired":null,"rotate":null,"left_panel":null},"geometry":{"type":"Point","coordinates":[-122.3846987,47.66821044]}},{"type":"Feature","properties":{"show_label":"","active":"","toggleSymb":"","icon":"","show_icon":"","details":"","toggleSym1":"","typeDiscrib":"Ice cream canes","id":98.0,"name":"Ibajella Ice Cream","size":"10'x10'","type":"Food","expired":null,"rotate":null,"left_panel":null},"geometry":{"type":"Point","coordinates":[-122.3846988,47.66824528]}},{"type":"Feature","properties":{"show_label":"","active":"","toggleSymb":"","icon":"","show_icon":"","details":"","toggleSym1":"","typeDiscrib":"Liquid nitrogen cereal","id":99.0,"name":"Stizzy Works Dragons Breath","size":"10'x10'","type":"Food","expired":null,"rotate":null,"left_panel":null},"geometry":{"type":"Point","coordinates":[-122.384698,47.66827713]}},{"type":"Feature","properties":{"show_label":"","active":"","toggleSymb":"","icon":"","show_icon":"","details":"","toggleSym1":"","typeDiscrib":"Popsickles","id":100.0,"name":"Seattle Pops","size":"10'x10'","type":"Food","expired":null,"rotate":null,"left_panel":null},"geometry":{"type":"Point","coordinates":[-122.3846966,47.66830657]}},{"type":"Feature","properties":{"show_label":"","active":"","toggleSymb":"","icon":"","show_icon":"","details":"","toggleSym1":"","typeDiscrib":"Sweet treats","id":101.0,"name":"PB Goodness","size":"10'x10'","type":"Food","expired":null,"rotate":null,"left_panel":null},"geometry":{"type":"Point","coordinates":[-122.3846969,47.66833827]}},{"type":"Feature","properties":{"show_label":"","active":"","toggleSymb":"","icon":"","show_icon":"","details":"","toggleSym1":"","typeDiscrib":"Ice cream","id":102.0,"name":"Puffle Up","size":"10'x15'","type":"Food","expired":null,"rotate":null,"left_panel":null},"geometry":{"type":"Point","coordinates":[-122.384696,47.66836751]}},{"type":"Feature","properties":{"show_label":"","active":"","toggleSymb":"","icon":"","show_icon":"","details":"","toggleSym1":"","typeDiscrib":"Sponsor","id":103.0,"name":"James Bay Distillers","size":"10'x10'","type":"Sponsor","expired":null,"rotate":null,"left_panel":null},"geometry":{"type":"Point","coordinates":[-122.3846971,47.66839299]}},{"type":"Feature","properties":{"show_label":"","active":"","toggleSymb":"","icon":"","show_icon":"","details":"","toggleSym1":"","typeDiscrib":"Sponsor","id":104.0,"name":"Green Solutions Heating and Cooling","size":"10'x20'","type":"Sponsor","expired":null,"rotate":null,"left_panel":null},"geometry":{"type":"Point","coordinates":[-122.3846978,47.66841659]}},{"type":"Feature","properties":{"show_label":"","active":"","toggleSymb":"","icon":"","show_icon":"","details":"","toggleSym1":"","typeDiscrib":"Crabs and shellfish","id":105.0,"name":"Crab Lounge","size":"10'x20'","type":"Food","expired":null,"rotate":null,"left_panel":null},"geometry":{"type":"Point","coordinates":[-122.384699,47.66845242]}},{"type":"Feature","properties":{"show_label":"","active":"","toggleSymb":"","icon":"","show_icon":"","details":"","toggleSym1":"","typeDiscrib":"Sponsor","id":106.0,"name":"Columbia Bank","size":"10'x20'","type":"Sponsor","expired":null,"rotate":null,"left_panel":null},"geometry":{"type":"Point","coordinates":[-122.3846962,47.66850012]}},{"type":"Feature","properties":{"show_label":"","active":"","toggleSymb":"","icon":"","show_icon":"","details":"","toggleSym1":"","typeDiscrib":"Strawberry shortcakes","id":107.0,"name":"Biringer Farms","size":"10'x10'","type":"Food","expired":null,"rotate":null,"left_panel":null},"geometry":{"type":"Point","coordinates":[-122.3846352,47.66859312]}},{"type":"Feature","properties":{"show_label":"","active":"","toggleSymb":"","icon":"","show_icon":"","details":"","toggleSym1":"","typeDiscrib":"Popcorn","id":108.0,"name":"Miss Hannah's Popcorn","size":"10'x10'","type":"Food","expired":null,"rotate":null,"left_panel":null},"geometry":{"type":"Point","coordinates":[-122.3845429,47.66859146]}},{"type":"Feature","properties":{"show_label":"","active":"","toggleSymb":"","icon":"","show_icon":"","details":"","toggleSym1":"","typeDiscrib":"Scallops","id":109.0,"name":"Alaskan Weathervane Scallops","size":"10'x40'","type":"Food","expired":null,"rotate":null,"left_panel":null},"geometry":{"type":"Point","coordinates":[-122.3843617,47.66849572]}},{"type":"Feature","properties":{"show_label":"","active":"","toggleSymb":"","icon":"","show_icon":"","details":"","toggleSym1":"","typeDiscrib":"Paella","id":110.0,"name":"Paella House","size":"10'x20'","type":"Food","expired":null,"rotate":null,"left_panel":null},"geometry":{"type":"Point","coordinates":[-122.3842867,47.66843271]}},{"type":"Feature","properties":{"show_label":"","active":"","toggleSymb":"","icon":"","show_icon":"","details":"","toggleSym1":"","typeDiscrib":"Piroshys","id":111.0,"name":"Kaleenka Piroshky","size":"10'x25'","type":"Food","expired":null,"rotate":null,"left_panel":null},"geometry":{"type":"Point","coordinates":[-122.3842244,47.66838168]}},{"type":"Feature","properties":{"show_label":"","active":"","toggleSymb":"","icon":"","show_icon":"","details":"","toggleSym1":"","typeDiscrib":"Sponsor","id":112.0,"name":"Mud Bay","size":"10'x10'","type":"Sponsor","expired":null,"rotate":null,"left_panel":null},"geometry":{"type":"Point","coordinates":[-122.3841206,47.66828637]}},{"type":"Feature","properties":{"show_label":"","active":"","toggleSymb":"","icon":"","show_icon":"","details":"","toggleSym1":"","typeDiscrib":"Hot sauces","id":113.0,"name":"Secret Aardvark","size":"10'x10'","type":"A\/C","expired":null,"rotate":null,"left_panel":null},"geometry":{"type":"Point","coordinates":[-122.3840916,47.66826162]}},{"type":"Feature","properties":{"show_label":"","active":"","toggleSymb":"","icon":"","show_icon":"","details":"","toggleSym1":"","typeDiscrib":"Fudge","id":114.0,"name":"Mr. Fudge","size":"10'x10'","type":"A\/C","expired":null,"rotate":null,"left_panel":null},"geometry":{"type":"Point","coordinates":[-122.3840567,47.66823192]}},{"type":"Feature","properties":{"show_label":"","active":"","toggleSymb":"","icon":"","show_icon":"","details":"","toggleSym1":"","typeDiscrib":"Jerky","id":115.0,"name":"Friday Harbor Jerky","size":"10'x10'","type":"A\/C","expired":null,"rotate":null,"left_panel":null},"geometry":{"type":"Point","coordinates":[-122.3840214,47.66820611]}},{"type":"Feature","properties":{"show_label":"","active":"","toggleSymb":"","icon":"","show_icon":"","details":"","toggleSym1":"","typeDiscrib":"Non-profit children care organization","id":116.0,"name":"Westside Baby","size":"10'x10'","type":"A\/C","expired":null,"rotate":null,"left_panel":null},"geometry":{"type":"Point","coordinates":[-122.3839866,47.66818133]}},{"type":"Feature","properties":{"show_label":"","active":"","toggleSymb":"","icon":"","show_icon":"","details":"","toggleSym1":"","typeDiscrib":"Cards and paper products","id":117.0,"name":"Pike Street Press","size":"10'x10'","type":"A\/C","expired":null,"rotate":null,"left_panel":null},"geometry":{"type":"Point","coordinates":[-122.3839568,47.66815657]}},{"type":"Feature","properties":{"show_label":"","active":"","toggleSymb":"","icon":"","show_icon":"","details":"","toggleSym1":"","typeDiscrib":"Sketch art","id":118.0,"name":"Sketches by the Sea","size":"10'x10'","type":"A\/C","expired":null,"rotate":null,"left_panel":null},"geometry":{"type":"Point","coordinates":[-122.383924,47.66813171]}},{"type":"Feature","properties":{"show_label":"","active":"","toggleSymb":"","icon":"","show_icon":"","details":"","toggleSym1":"","typeDiscrib":"Rock climbing wall","id":120.0,"name":"Fix Enterprises Rock Wall","size":"25' x 45' ","type":"Amusement","expired":null,"rotate":null,"left_panel":null},"geometry":{"type":"Point","coordinates":[-122.3838058,47.66818666]}},{"type":"Feature","properties":{"show_label":"","active":"","toggleSymb":"","icon":"","show_icon":"","details":"","toggleSym1":"","typeDiscrib":"Jewelry","id":121.0,"name":"Baraka Gemstones and Jewelry","size":"10'x10'","type":"A\/C","expired":null,"rotate":null,"left_panel":null},"geometry":{"type":"Point","coordinates":[-122.3839593,47.66832077]}},{"type":"Feature","properties":{"show_label":"","active":"","toggleSymb":"","icon":"","show_icon":"","details":"","toggleSym1":"","typeDiscrib":"Wood art","id":122.0,"name":"Krauskopf Works","size":"10'x10'","type":"A\/C","expired":null,"rotate":null,"left_panel":null},"geometry":{"type":"Point","coordinates":[-122.3839933,47.66834925]}},{"type":"Feature","properties":{"show_label":"","active":"","toggleSymb":"","icon":"","show_icon":"","details":"","toggleSym1":"","typeDiscrib":"Water protection","id":123.0,"name":"Seattle Public Utilities","size":"10'x10'","type":"Non-Profit","expired":null,"rotate":null,"left_panel":null},"geometry":{"type":"Point","coordinates":[-122.3840283,47.66837709]}},{"type":"Feature","properties":{"show_label":"","active":"","toggleSymb":"","icon":"","show_icon":"","details":"","toggleSym1":"","typeDiscrib":"Handbags","id":124.0,"name":"Purses with Personality","size":"10'x10'","type":"A\/C","expired":null,"rotate":null,"left_panel":null},"geometry":{"type":"Point","coordinates":[-122.384063,47.66840592]}},{"type":"Feature","properties":{"show_label":"","active":"","toggleSymb":"","icon":"","show_icon":"","details":"","toggleSym1":"","typeDiscrib":"Cocktail mixes","id":125.0,"name":"Improper Goods","size":"10'x10","type":"A\/C","expired":null,"rotate":null,"left_panel":null},"geometry":{"type":"Point","coordinates":[-122.3841019,47.66843849]}},{"type":"Feature","properties":{"show_label":"","active":"","toggleSymb":"","icon":"","show_icon":"","details":"","toggleSym1":"","typeDiscrib":"Henna art","id":126.0,"name":"Mehndi Madness","size":"10'x10'","type":"A\/C","expired":null,"rotate":null,"left_panel":null},"geometry":{"type":"Point","coordinates":[-122.384137,47.66847078]}},{"type":"Feature","properties":{"show_label":"","active":"","toggleSymb":"","icon":"","show_icon":"","details":"","toggleSym1":"","typeDiscrib":"Lemonade","id":127.0,"name":"The Lemonade Guy","size":"10'x10'","type":"Food","expired":null,"rotate":null,"left_panel":null},"geometry":{"type":"Point","coordinates":[-122.3841414,47.66856881]}},{"type":"Feature","properties":{"show_label":"","active":"","toggleSymb":"","icon":"","show_icon":"","details":"","toggleSym1":"","typeDiscrib":"Seafood","id":128.0,"name":"The Fork and Fin","size":"Food Truck","type":"Food","expired":null,"rotate":null,"left_panel":null},"geometry":{"type":"Point","coordinates":[-122.3840946,47.6686325]}},{"type":"Feature","properties":{"show_label":"","active":"","toggleSymb":"","icon":"","show_icon":"","details":"","toggleSym1":"","typeDiscrib":"Seafood and salads","id":129.0,"name":"Scotty's Northwest LLC","size":"10'x10'","type":"Food","expired":null,"rotate":null,"left_panel":null},"geometry":{"type":"Point","coordinates":[-122.3840413,47.66863272]}},{"type":"Feature","properties":{"show_label":"","active":"","toggleSymb":"","icon":"","show_icon":"","details":"","toggleSym1":"","typeDiscrib":"Soulfood-inspired seafood","id":130.0,"name":"Simply Soulful","size":"10'x10'","type":"Food","expired":null,"rotate":null,"left_panel":null},"geometry":{"type":"Point","coordinates":[-122.383964,47.66863341]}},{"type":"Feature","properties":{"show_label":"","active":"","toggleSymb":"","icon":"","show_icon":"","details":"","toggleSym1":"","typeDiscrib":"Corn on the cob","id":131.0,"name":"The Corn Roasters LLC","size":"10'x10'","type":"Food","expired":null,"rotate":null,"left_panel":null},"geometry":{"type":"Point","coordinates":[-122.3839289,47.66863341]}},{"type":"Feature","properties":{"show_label":"","active":"","toggleSymb":"","icon":"","show_icon":"","details":"","toggleSym1":"","typeDiscrib":"Asian-inspired seafood","id":132.0,"name":"Vong's Kitchen","size":"10'x20'","type":"Food","expired":null,"rotate":null,"left_panel":null},"geometry":{"type":"Point","coordinates":[-122.3838332,47.66863354]}},{"type":"Feature","properties":{"show_label":"","active":"","toggleSymb":"","icon":"","show_icon":"","details":"","toggleSym1":"","typeDiscrib":"Americana seafood","id":133.0,"name":"Gather Kitchen and Bar","size":"10'x10'","type":"Food","expired":null,"rotate":null,"left_panel":null},"geometry":{"type":"Point","coordinates":[-122.3837494,47.66863272]}},{"type":"Feature","properties":{"show_label":"","active":"","toggleSymb":"","icon":"","show_icon":"","details":"","toggleSym1":"","typeDiscrib":"Cajun burgers","id":134.0,"name":"Bad Albert's","size":"10'x15'","type":"Food","expired":null,"rotate":null,"left_panel":null},"geometry":{"type":"Point","coordinates":[-122.3836766,47.66863043]}},{"type":"Feature","properties":{"show_label":"","active":"","toggleSymb":"","icon":"","show_icon":"","details":"","toggleSym1":"","typeDiscrib":"Fair foods and seafood","id":135.0,"name":"Irishman Enterprises","size":"10'x30'","type":"Food","expired":null,"rotate":null,"left_panel":null},"geometry":{"type":"Point","coordinates":[-122.3835712,47.66863215]}},{"type":"Feature","properties":{"show_label":"","active":"","toggleSymb":"","icon":"","show_icon":"","details":"","toggleSym1":"","typeDiscrib":"Salmon burgers","id":136.0,"name":"Cousins Gourmet","size":"10'x15'","type":"Food","expired":null,"rotate":null,"left_panel":null},"geometry":{"type":"Point","coordinates":[-122.383482,47.66863285]}},{"type":"Feature","properties":{"show_label":"","active":"","toggleSymb":"","icon":"","show_icon":"","details":"","toggleSym1":"","typeDiscrib":"Po' boys","id":137.0,"name":"Anthony's Concessions","size":"10'x10'","type":"Food","expired":null,"rotate":null,"left_panel":null},"geometry":{"type":"Point","coordinates":[-122.3834297,47.66863285]}},{"type":"Feature","properties":{"show_label":"","active":"","toggleSymb":"","icon":"","show_icon":"","details":"","toggleSym1":"","typeDiscrib":"Sandwiches","id":138.0,"name":"The Doner Haus","size":"10'x10'","type":"Food","expired":null,"rotate":null,"left_panel":null},"geometry":{"type":"Point","coordinates":[-122.3833816,47.66863583]}},{"type":"Feature","properties":{"show_label":"","active":"","toggleSymb":"","icon":"","show_icon":"","details":"","toggleSym1":"","typeDiscrib":"Seafood","id":139.0,"name":"Barriga Llena","size":"10'x10'","type":"Food","expired":null,"rotate":null,"left_panel":null},"geometry":{"type":"Point","coordinates":[-122.3833155,47.66863583]}},{"type":"Feature","properties":{"show_label":"","active":"","toggleSymb":"","icon":"","show_icon":"","details":"","toggleSym1":"","typeDiscrib":"Hawaiian-style BBQ","id":140.0,"name":"Pac Island Grill Hawaiian Style BBQ","size":"10'x20'","type":"Food","expired":null,"rotate":null,"left_panel":null},"geometry":{"type":"Point","coordinates":[-122.3832722,47.66863235]}},{"type":"Feature","properties":{"show_label":"","active":"","toggleSymb":"","icon":"","show_icon":"","details":"","toggleSym1":"","typeDiscrib":"Southern seafood","id":141.0,"name":"New Orleans Cookery","size":"10'x20'","type":"Food","expired":null,"rotate":null,"left_panel":null},"geometry":{"type":"Point","coordinates":[-122.3832105,47.66863179]}},{"type":"Feature","properties":{"show_label":"","active":"","toggleSymb":"","icon":"","show_icon":"","details":"","toggleSym1":"","typeDiscrib":"Mac and cheese","id":142.0,"name":"Mac & Cheese WHAAAAT","size":"10'x15'","type":"Food","expired":null,"rotate":null,"left_panel":null},"geometry":{"type":"Point","coordinates":[-122.3827934,47.66862413]}},{"type":"Feature","properties":{"show_label":"","active":"","toggleSymb":"","icon":"","show_icon":"","details":"","toggleSym1":"","typeDiscrib":"Chowder","id":143.0,"name":"Pike Place Chowder","size":"10'x20'","type":"Food","expired":null,"rotate":null,"left_panel":null},"geometry":{"type":"Point","coordinates":[-122.3827397,47.66862965]}},{"type":"Feature","properties":{"show_label":"","active":"","toggleSymb":"","icon":"","show_icon":"","details":"","toggleSym1":"","typeDiscrib":"Corn on the cob","id":144.0,"name":"Kornman of Washington","size":"10'x20'","type":"Food","expired":null,"rotate":null,"left_panel":null},"geometry":{"type":"Point","coordinates":[-122.3826752,47.66863207]}},{"type":"Feature","properties":{"show_label":"","active":"","toggleSymb":"","icon":"Food Truck","show_icon":"","details":"","toggleSym1":"","typeDiscrib":"Asian-inspired seafood","id":145.0,"name":"Panda Dim Sum","size":"10'x20'","type":"Food","expired":null,"rotate":null,"left_panel":null},"geometry":{"type":"Point","coordinates":[-122.3825921,47.66863354]}},{"type":"Feature","properties":{"show_label":"","active":"","toggleSymb":"","icon":"Food Truck","show_icon":"","details":"","toggleSym1":"","typeDiscrib":"Iced Tea","id":146.0,"name":"Stizzy Works Iced Tea","size":"10'x10","type":"Food","expired":null,"rotate":null,"left_panel":null},"geometry":{"type":"Point","coordinates":[-122.3825218,47.66863182]}},{"type":"Feature","properties":{"show_label":"","active":"","toggleSymb":"","icon":"Food Truck","show_icon":"","details":"","toggleSym1":"","typeDiscrib":"Southern seafood","id":147.0,"name":"Hamhock Soulshack","size":"Food Truck","type":"Food","expired":null,"rotate":null,"left_panel":null},"geometry":{"type":"Point","coordinates":[-122.382431,47.66862965]}},{"type":"Feature","properties":{"show_label":"","active":"","toggleSymb":"","icon":"Food Truck","show_icon":"","details":"","toggleSym1":"","typeDiscrib":"Asian-inspired seafood","id":148.0,"name":"Carlos Catering","size":"10'x15'","type":"Food","expired":null,"rotate":null,"left_panel":null},"geometry":{"type":"Point","coordinates":[-122.3823682,47.66863043]}},{"type":"Feature","properties":{"show_label":"","active":"","toggleSymb":"","icon":"Food Truck","show_icon":"","details":"","toggleSym1":"","typeDiscrib":"Americana  ","id":149.0,"name":"Wich Came First","size":"Food Truck","type":"Food","expired":null,"rotate":null,"left_panel":null},"geometry":{"type":"Point","coordinates":[-122.3824735,47.66871448]}},{"type":"Feature","properties":{"show_label":"","active":"","toggleSymb":"","icon":"Food Truck","show_icon":"","details":"","toggleSym1":"","typeDiscrib":"Vietnamese-inspired seafood","id":150.0,"name":"The Lemongrass","size":"10'x10'","type":"Food","expired":null,"rotate":null,"left_panel":null},"geometry":{"type":"Point","coordinates":[-122.382589,47.66871586]}},{"type":"Feature","properties":{"show_label":"","active":"","toggleSymb":"","icon":"Food Truck","show_icon":"","details":"","toggleSym1":"","typeDiscrib":"Texas-style BBQ","id":151.0,"name":"C. Davis Texas BBQ","size":"Food Truck","type":"Food","expired":null,"rotate":null,"left_panel":null},"geometry":{"type":"Point","coordinates":[-122.3827015,47.66871517]}},{"type":"Feature","properties":{"show_label":"","active":"","toggleSymb":"","icon":"Food Truck","show_icon":"","details":"","toggleSym1":"","typeDiscrib":"Asian-inspired seafood","id":152.0,"name":"Slide Thru Food Truck","size":"Food Truck","type":"Food","expired":null,"rotate":null,"left_panel":null},"geometry":{"type":"Point","coordinates":[-122.3828077,47.66871517]}},{"type":"Feature","properties":{"show_label":"","active":"","toggleSymb":"","icon":"Food Truck","show_icon":"","details":"","toggleSym1":"","typeDiscrib":"Lemonade","id":153.0,"name":"Stizzy Works Lemonade","size":"10'x10'","type":"Food","expired":null,"rotate":null,"left_panel":null},"geometry":{"type":"Point","coordinates":[-122.3829742,47.66871317]}},{"type":"Feature","properties":{"show_label":"","active":"","toggleSymb":"","icon":"","show_icon":"","details":"","toggleSym1":"","typeDiscrib":"Burgers","id":154.0,"name":"Stacks","size":"Food Truck","type":"Food","expired":null,"rotate":null,"left_panel":null},"geometry":{"type":"Point","coordinates":[-122.3830482,47.66871448]}},{"type":"Feature","properties":{"show_label":"","active":"","toggleSymb":"","icon":"","show_icon":"","details":"","toggleSym1":"","typeDiscrib":"Po' boys","id":155.0,"name":"Where Ya At Matt","size":"Food Truck","type":"Food","expired":null,"rotate":null,"left_panel":null},"geometry":{"type":"Point","coordinates":[-122.383154,47.66871425]}},{"type":"Feature","properties":{"show_label":"","active":"","toggleSymb":"","icon":"","show_icon":"","details":"","toggleSym1":"","typeDiscrib":"Fish and chips","id":156.0,"name":"Nosh","size":"Food Truck","type":"Food","expired":null,"rotate":null,"left_panel":null},"geometry":{"type":"Point","coordinates":[-122.3832633,47.66871315]}},{"type":"Feature","properties":{"show_label":"","active":"","toggleSymb":"","icon":"","show_icon":"","details":"","toggleSym1":"","typeDiscrib":"Native foods","id":157.0,"name":"Off the Rez","size":"Food Truck","type":"Food","expired":null,"rotate":null,"left_panel":null},"geometry":{"type":"Point","coordinates":[-122.3833706,47.66871202]}},{"type":"Feature","properties":{"show_label":"","active":"","toggleSymb":"","icon":"","show_icon":"","details":"","toggleSym1":"","typeDiscrib":"Acai bowls","id":158.0,"name":"Island Blend Acai","size":"Food Truck","type":"Food","expired":null,"rotate":null,"left_panel":null},"geometry":{"type":"Point","coordinates":[-122.3835267,47.66871205]}},{"type":"Feature","properties":{"show_label":"","active":"","toggleSymb":"","icon":"","show_icon":"","details":"","toggleSym1":"","typeDiscrib":"Fish cake sliders","id":159.0,"name":"Tuk Tuk Mobile Feast","size":"Food Truck","type":"Food","expired":null,"rotate":null,"left_panel":null},"geometry":{"type":"Point","coordinates":[-122.3836341,47.66871165]}},{"type":"Feature","properties":{"show_label":"","active":"","toggleSymb":"","icon":"","show_icon":"","details":"","toggleSym1":"","typeDiscrib":"Scandinavian-inspired seafood","id":160.0,"name":"Tumble Swede","size":"10'x20'","type":"Food","expired":null,"rotate":null,"left_panel":null},"geometry":{"type":"Point","coordinates":[-122.383742,47.66871326]}},{"type":"Feature","properties":{"show_label":"","active":"","toggleSymb":"","icon":"","show_icon":"","details":"","toggleSym1":"","typeDiscrib":"Peruvian-inspired seafood","id":161.0,"name":"Taste of Peru","size":"10'x15'","type":"Food","expired":null,"rotate":null,"left_panel":null},"geometry":{"type":"Point","coordinates":[-122.383831,47.66871458]}},{"type":"Feature","properties":{"show_label":"","active":"","toggleSymb":"","icon":"","show_icon":"","details":"","toggleSym1":"","typeDiscrib":"Asian-inspired seafood","id":162.0,"name":"Hapa Food Co.","size":"10'x40'","type":"Food","expired":null,"rotate":null,"left_panel":null},"geometry":{"type":"Point","coordinates":[-122.3840183,47.66871536]}},{"type":"Feature","properties":{"show_label":"","active":"","toggleSymb":"","icon":"","show_icon":"","details":"","toggleSym1":"","typeDiscrib":"Bratwurst","id":163.0,"name":"Zieglers","size":"10'x10'","type":"Food","expired":null,"rotate":null,"left_panel":null},"geometry":{"type":"Point","coordinates":[-122.3842073,47.66871437]}},{"type":"Feature","properties":{"show_label":"","active":"","toggleSymb":"","icon":"","show_icon":"","details":"","toggleSym1":"","typeDiscrib":"Cheesey goodness","id":164.0,"name":"Alpine Cheese Melts \/ Fire and Scrape","size":"10'x40'","type":"Food","expired":null,"rotate":null,"left_panel":null},"geometry":{"type":"Point","coordinates":[-122.3843567,47.66871614]}},{"type":"Feature","properties":{"show_label":"","active":"","toggleSymb":"","icon":"","show_icon":"","details":"","toggleSym1":"","typeDiscrib":"Fish tacos","id":165.0,"name":"Truly Med","size":"10'x10'","type":"Food","expired":null,"rotate":null,"left_panel":null},"geometry":{"type":"Point","coordinates":[-122.3844581,47.66871561]}},{"type":"Feature","properties":{"show_label":"","active":"","toggleSymb":"","icon":"","show_icon":"","details":"","toggleSym1":"","typeDiscrib":"Sponsor","id":166.0,"name":"Swedish Medical Center","size":"10'x20'","type":"Sponsor","expired":null,"rotate":null,"left_panel":null},"geometry":{"type":"Point","coordinates":[-122.3845112,47.66871454]}},{"type":"Feature","properties":{"show_label":"","active":"","toggleSymb":"","icon":"","show_icon":"","details":"","toggleSym1":"","typeDiscrib":"Sponsor","id":167.0,"name":"Homestreet Bank Hydroplane","size":"10'x20'","type":"Sponsor","expired":null,"rotate":null,"left_panel":null},"geometry":{"type":"Point","coordinates":[-122.3844933,47.6674457]}},{"type":"Feature","properties":{"show_label":"","active":"","toggleSymb":"","icon":"","show_icon":"","details":"","toggleSym1":"","typeDiscrib":"Sponsor","id":168.0,"name":"Homestreet Bank Booth","size":"10'x10'","type":"Sponsor","expired":null,"rotate":null,"left_panel":null},"geometry":{"type":"Point","coordinates":[-122.3844434,47.6674062]}},{"type":"Feature","properties":{"show_label":"","active":"","toggleSymb":"","icon":"","show_icon":"","details":"","toggleSym1":"","typeDiscrib":"Girl Scouts","id":169.0,"name":"Girl Scout Troop 44477 Seattle Elks","size":"10'x10'","type":"Non-Profit","expired":null,"rotate":null,"left_panel":null},"geometry":{"type":"Point","coordinates":[-122.3844086,47.66737877]}},{"type":"Feature","properties":{"show_label":"","active":"","toggleSymb":"","icon":"","show_icon":"","details":"","toggleSym1":"","typeDiscrib":"Children's literacy program","id":170.0,"name":"Page Ahead Children's Lit Program","size":"10'x10'","type":"Non-Profit","expired":null,"rotate":null,"left_panel":null},"geometry":{"type":"Point","coordinates":[-122.384371,47.66734383]}},{"type":"Feature","properties":{"show_label":"","active":"","toggleSymb":"","icon":"","show_icon":"","details":"","toggleSym1":"","typeDiscrib":"Cornhole game","id":171.0,"name":"Cornhole Station #1","size":"20'x33'","type":"Amusement","expired":null,"rotate":null,"left_panel":null},"geometry":{"type":"Point","coordinates":[-122.384289,47.66729226]}},{"type":"Feature","properties":{"show_label":"","active":"","toggleSymb":"","icon":"","show_icon":"","details":"","toggleSym1":"","typeDiscrib":"Ladder ball game","id":172.0,"name":"Ladder Ball Station","size":"10'x20'","type":"Amusement","expired":null,"rotate":null,"left_panel":null},"geometry":{"type":"Point","coordinates":[-122.3841989,47.66721047]}},{"type":"Feature","properties":{"show_label":"","active":"","toggleSymb":"","icon":"","show_icon":"","details":"","toggleSym1":"","typeDiscrib":"Badminton game","id":173.0,"name":"Verity Badminton Station","size":"10'x20'","type":"Amusement","expired":null,"rotate":null,"left_panel":null},"geometry":{"type":"Point","coordinates":[-122.3841255,47.6671486]}},{"type":"Feature","properties":{"show_label":"","active":"","toggleSymb":"","icon":"","show_icon":"","details":"","toggleSym1":"","typeDiscrib":"Giant jenga with 2x4's","id":174.0,"name":"Giant Jenga","size":"10'x10'","type":"Amusement","expired":null,"rotate":null,"left_panel":null},"geometry":{"type":"Point","coordinates":[-122.3840834,47.66711011]}},{"type":"Feature","properties":{"show_label":"","active":"","toggleSymb":"","icon":"","show_icon":"","details":"","toggleSym1":"","typeDiscrib":"Bubbles","id":175.0,"name":"Clover Toys Bubble Station","size":"20'x30'","type":"Amusement","expired":null,"rotate":null,"left_panel":null},"geometry":{"type":"Point","coordinates":[-122.3839588,47.66701575]}},{"type":"Feature","properties":{"show_label":"","active":"","toggleSymb":"","icon":"","show_icon":"","details":"","toggleSym1":"","typeDiscrib":"Aerial performance","id":176.0,"name":"Arcadia Aerial Performance","size":"20'x30'","type":"Amusement","expired":null,"rotate":null,"left_panel":null},"geometry":{"type":"Point","coordinates":[-122.3838566,47.66692712]}},{"type":"Feature","properties":{"show_label":"","active":"","toggleSymb":"","icon":"","show_icon":"","details":"","toggleSym1":"","typeDiscrib":"AstroTurf lounge area","id":177.0,"name":"AstroTurf Lounge","size":"20'x30'","type":"Amusement","expired":null,"rotate":null,"left_panel":null},"geometry":{"type":"Point","coordinates":[-122.383781,47.66685335]}},{"type":"Feature","properties":{"show_label":"","active":"","toggleSymb":"","icon":"","show_icon":"","details":"","toggleSym1":"","typeDiscrib":"Giant beer pong game set","id":178.0,"name":"Bucket Ball Game Station","size":"10'x10'","type":"Amusement","expired":null,"rotate":null,"left_panel":null},"geometry":{"type":"Point","coordinates":[-122.3837404,47.66681739]}},{"type":"Feature","properties":{"show_label":null,"active":null,"toggleSymb":null,"icon":null,"show_icon":null,"details":null,"toggleSym1":null,"typeDiscrib":"Research Questions Outreach","id":119.0,"name":"Harborview Medical Center","size":"10'x10'","type":"Non-Profit","expired":null,"rotate":null,"left_panel":null},"geometry":{"type":"Point","coordinates":[-122.383893536514435,47.66811058508344]}},{"type":"Feature","properties":{"show_label":"","active":"","toggleSymb":"","icon":"","show_icon":"","details":"","toggleSym1":"","typeDiscrib":"Cornhole game","id":179.0,"name":"Cornhole Station #2","size":"20'x33'","type":"Amusement","expired":"","rotate":null,"left_panel":null},"geometry":{"type":"Point","coordinates":[-122.383650027983151,47.666753571773647]}},{"type":"Feature","properties":{"show_label":"","active":"","toggleSymb":"","icon":"","show_icon":"","details":"","toggleSym1":"","typeDiscrib":"Sponsor","id":180.0,"name":"All the Best Pet Care Shade Tent","size":"10'x10'","type":"Sponsor","expired":"","rotate":null,"left_panel":null},"geometry":{"type":"Point","coordinates":[-122.383561906839304,47.666685626643414]}},{"type":"Feature","properties":{"show_label":"","active":"","toggleSymb":"","icon":"","show_icon":"","details":"","toggleSym1":"","typeDiscrib":"Pools for dogs to splash in","id":181.0,"name":"Doggie Splash Town Pool","size":"10'x10'","type":"Amusement","expired":null,"rotate":null,"left_panel":null},"geometry":{"type":"Point","coordinates":[-122.383508267882164,47.666640903218294]}},{"type":"Feature","properties":{"show_label":"","active":"","toggleSymb":"","icon":"","show_icon":"","details":"","toggleSym1":"","typeDiscrib":"Festi-Bowl sponsor and skateboard brand","id":192.0,"name":"Allez Oop","size":"10'x10'","type":"Sponsor","expired":"","rotate":null,"left_panel":null},"geometry":{"type":"Point","coordinates":[-122.38573173036724,47.670629092997345]}},{"type":"Feature","properties":{"show_label":"","active":"","toggleSymb":"","icon":"","show_icon":"","details":"","toggleSym1":"","typeDiscrib":"Restroom facilities","id":193.1,"name":"Honey Buckets","size":"","type":"Restroom","expired":"","rotate":null,"left_panel":null},"geometry":{"type":"Point","coordinates":[-122.385857845772463,47.670718102975087]}},{"type":"Feature","properties":{"show_label":"","active":"","toggleSymb":"","icon":"","show_icon":"","details":"","toggleSym1":"","typeDiscrib":"Restroom facilities","id":193.2,"name":"Honey Buckets","size":"","type":"Restroom","expired":"","rotate":null,"left_panel":null},"geometry":{"type":"Point","coordinates":[-122.385824640703731,47.670694022996088]}},{"type":"Feature","properties":{"show_label":"","active":"","toggleSymb":"","icon":"","show_icon":"","details":"","toggleSym1":"","typeDiscrib":"6 bounce houses","id":194.0,"name":"Amusement on Demand Bounce Houses","size":"","type":"Amusement","expired":"","rotate":null,"left_panel":null},"geometry":{"type":"Point","coordinates":[-122.38540574599088,47.670695742994951]}},{"type":"Feature","properties":{"show_label":"","active":"","toggleSymb":"","icon":"","show_icon":"","details":"","toggleSym1":"","typeDiscrib":"Church booth","id":183.0,"name":"St. Luke's Church","size":"10'x10'","type":"Non-Profit","expired":"","rotate":null,"left_panel":null},"geometry":{"type":"Point","coordinates":[-122.384885633126586,47.670375755495101]}},{"type":"Feature","properties":{"show_label":"","active":"","toggleSymb":"","icon":"","show_icon":"","details":"","toggleSym1":"","typeDiscrib":"Library booth","id":184.0,"name":"Ballard Library","size":"10'x10'","type":"Non-Profit","expired":"","rotate":null,"left_panel":null},"geometry":{"type":"Point","coordinates":[-122.384885633126558,47.670351327981891]}},{"type":"Feature","properties":{"show_label":"","active":"","toggleSymb":"","icon":"","show_icon":"","details":"","toggleSym1":"","typeDiscrib":"Face painting","id":185.0,"name":"Tiny Art Face Painting","size":"10'x10'","type":"Amusement","expired":"","rotate":null,"left_panel":null},"geometry":{"type":"Point","coordinates":[-122.384885633126558,47.670323847017308]}},{"type":"Feature","properties":{"show_label":"","active":"","toggleSymb":"","icon":"","show_icon":"","details":"","toggleSym1":"","typeDiscrib":"Restroom facilities","id":193.3,"name":"Honey Buckets","size":"","type":"Restroom","expired":"","rotate":null,"left_panel":null},"geometry":{"type":"Point","coordinates":[-122.384890167521817,47.670465831849199]}},{"type":"Feature","properties":{"show_label":"","active":"","toggleSymb":"","icon":"","show_icon":"","details":"","toggleSym1":"","typeDiscrib":"Restroom facilities","id":193.4,"name":"Honey Buckets","size":"","type":"Restroom","expired":"","rotate":null,"left_panel":null},"geometry":{"type":"Point","coordinates":[-122.384890167521817,47.670433770791675]}},{"type":"Feature","properties":{"show_label":"","active":"","toggleSymb":"","icon":"","show_icon":"","details":"","toggleSym1":"","typeDiscrib":"Parachute game","id":195.0,"name":"Parachute","size":"","type":"Amusement","expired":"","rotate":null,"left_panel":null},"geometry":{"type":"Point","coordinates":[-122.385124822476456,47.670552091263325]}},{"type":"Feature","properties":{"show_label":"","active":"","toggleSymb":"","icon":"","show_icon":"","details":"","toggleSym1":"","typeDiscrib":"Sidewalk chalk, hula hoops, and bubbles for kids of all ages","id":182.0,"name":"Illumination Learning Studio","size":"","type":"Amusement","expired":"","rotate":null,"left_panel":null},"geometry":{"type":"Point","coordinates":[-122.385190571207687,47.670449801322896]}},{"type":"Feature","properties":{"show_label":"","active":"","toggleSymb":"","icon":"","show_icon":"","details":"","toggleSym1":"","typeDiscrib":"Seattle Fire Department Truck(s)","id":196.0,"name":"Fire Trucks","size":"","type":"Fire Trucks","expired":"","rotate":null,"left_panel":null},"geometry":{"type":"Point","coordinates":[-122.384841422772837,47.670752090418368]}},{"type":"Feature","properties":{"show_label":"","active":"","toggleSymb":"","icon":"","show_icon":"","details":"","toggleSym1":"","typeDiscrib":"Gelato","id":186.0,"name":"Nutty Squirrel Gelato","size":"10'x10'","type":"Food","expired":"","rotate":null,"left_panel":null},"geometry":{"type":"Point","coordinates":[-122.38507267693096,47.67027422856971]}},{"type":"Feature","properties":{"show_label":"","active":"","toggleSymb":"","icon":"","show_icon":"","details":"","toggleSym1":"","typeDiscrib":"Iced teas and lemonades","id":187.0,"name":"Wicked Palmer","size":"10'x10'","type":"Food","expired":"","rotate":null,"left_panel":null},"geometry":{"type":"Point","coordinates":[-122.385118020883553,47.67027422856971]}},{"type":"Feature","properties":{"show_label":"","active":"","toggleSymb":"","icon":"","show_icon":"","details":"","toggleSym1":"","typeDiscrib":"Girl Scout booth","id":188.0,"name":"Girl Scout Troop 40827","size":"10'x10'","type":"Non-Profit","expired":"","rotate":null,"left_panel":null},"geometry":{"type":"Point","coordinates":[-122.38522422492251,47.670272844977724]}},{"type":"Feature","properties":{"show_label":"","active":"","toggleSymb":"","icon":"","show_icon":"","details":"","toggleSym1":"","typeDiscrib":"Boy Scout booth","id":189.0,"name":"Boy Scout Troop 827","size":"10'x10'","type":"Non-Profit","expired":"","rotate":null,"left_panel":null},"geometry":{"type":"Point","coordinates":[-122.385269002075674,47.670272654137463]}},{"type":"Feature","properties":{"show_label":"","active":"","toggleSymb":"","icon":"","show_icon":"","details":"","toggleSym1":"","typeDiscrib":"Mobile Police Bus","id":197.0,"name":"Seattle Police Mobile Precinct Unit","size":"","type":"Police","expired":"","rotate":null,"left_panel":null},"geometry":{"type":"Point","coordinates":[-122.385676955949066,47.670188779768779]}},{"type":"Feature","properties":{"show_label":null,"active":null,"toggleSymb":null,"icon":null,"show_icon":null,"details":null,"toggleSym1":null,"typeDiscrib":"Restroom facilities","id":193.5,"name":"Honey Buckets","size":null,"type":"Restroom","expired":null,"rotate":null,"left_panel":null},"geometry":{"type":"Point","coordinates":[-122.385332286357865,47.667780726270159]}},{"type":"Feature","properties":{"show_label":null,"active":null,"toggleSymb":null,"icon":null,"show_icon":null,"details":null,"toggleSym1":null,"typeDiscrib":null,"id":5555.0,"name":"Lutefisk Contest","size":null,"type":"Entertainment","expired":null,"rotate":null,"left_panel":true},"geometry":{"type":"Point","coordinates":[-122.384736835956588,47.668669406263234]}},{"type":"Feature","properties":{"show_label":null,"active":null,"toggleSymb":null,"icon":null,"show_icon":null,"details":null,"toggleSym1":null,"typeDiscrib":null,"id":5554.0,"name":"SeafoodFest Info","size":null,"type":"Info Booth","expired":null,"rotate":null,"left_panel":true},"geometry":{"type":"Point","coordinates":[-122.384769022464738,47.668537550228358]}},{"type":"Feature","properties":{"show_label":"","active":"","toggleSymb":"","icon":"","show_icon":"","id":9996,"name":"VIP Area","type":"amusement","rotate":null,"left_panel":null},"geometry":{"type":"Polygon","coordinates":[[[-122.384727272674482,47.667846996745006],[-122.384781933077846,47.667846948438154],[-122.384781224716406,47.667681321358216],[-122.384937250864567,47.66778534924358],[-122.384946110567313,47.667766048839944],[-122.384734537146699,47.667619288518395],[-122.384728206725683,47.667625731472121],[-122.384727272674482,47.667846996745006]]]}},{"type":"Feature","properties":{"show_label":null,"active":null,"toggleSymb":null,"icon":null,"show_icon":null,"id":9997,"name":"Main Stage","type":"amusement","rotate":null,"left_panel":true},"geometry":{"type":"Polygon","coordinates":[[[-122.384697597545099,47.667572260484427],[-122.384683372567721,47.667559487761586],[-122.384731974573782,47.667511057825742],[-122.384745409274643,47.667523830560441],[-122.384697597545099,47.667572260484427]]]}},{"type":"Feature","properties":{"show_label":null,"active":null,"toggleSymb":null,"icon":null,"show_icon":null,"id":9998,"name":"Back Stage","type":"amusement","rotate":null,"left_panel":null},"geometry":{"type":"Polygon","coordinates":[[[-122.384679026046825,47.667551238698714],[-122.384664801069448,47.667538465975873],[-122.384713403075509,47.667490036040029],[-122.38472683777637,47.667502808774728],[-122.384679026046825,47.667551238698714]]]}},{"type":"Feature","properties":{"show_label":"1","active":null,"toggleSymb":null,"icon":null,"show_icon":null,"id":9999,"name":"Beer Garden","type":"amusement","rotate":45,"left_panel":true},"geometry":{"type":"Polygon","coordinates":[[[-122.385827873946099,47.668363909742837],[-122.384946110432054,47.667766048531135],[-122.384937249649255,47.667785348606571],[-122.384781223618333,47.667681321048114],[-122.38478193609771,47.667846933841325],[-122.384727242228308,47.667846997641938],[-122.384728202838247,47.667625716296229],[-122.384797631398669,47.667555325463674],[-122.385878144208988,47.668282857170261],[-122.385827873946099,47.668363909742837]]]}},{"type":"Feature","properties":{"show_label":"1","active":"false","toggleSymb":"keyboard_arrow_up","icon":null,"show_icon":"false","id":301,"name":"Trident Seafoods Alder-smoked Salmon","type":"food","rotate":90,"left_panel":true},"geometry":{"type":"Polygon","coordinates":[[[-122.38479283679375,47.66880002347348],[-122.384888447465229,47.66880033344038],[-122.384889386073851,47.669369768921115],[-122.384792628462478,47.669369582790708],[-122.38479283679375,47.66880002347348]]]}},{"type":"Feature","properties":{"show_label":"1","active":"false","toggleSymb":"keyboard_arrow_up","icon":null,"show_icon":null,"id":344,"name":"Big Purple Slide","type":"amusement","rotate":null,"left_panel":true},"geometry":{"type":"Polygon","coordinates":[[[-122.384810789823334,47.669834511622177],[-122.384812104853395,47.669554500029442],[-122.38488469728496,47.669554537365734],[-122.384883382072545,47.669833027244451],[-122.384810789823334,47.669834511622177]]]}},{"type":"Feature","properties":{"show_label":"1","active":"false","toggleSymb":"keyboard_arrow_up","icon":null,"show_icon":null,"id":349,"name":"Game Plank","type":"amusement","rotate":50,"left_panel":true},"geometry":{"type":"Polygon","coordinates":[[[-122.384626117203808,47.667486169917822],[-122.38458489563476,47.667509557108076],[-122.383134678182472,47.666331603977319],[-122.38317710242336,47.666309152091117],[-122.384626117203808,47.667486169917822]]]}},{"type":"Feature","properties":{"show_label":"1","active":"false","toggleSymb":"keyboard_arrow_up","icon":null,"show_icon":null,"id":351,"name":"Kid's Deck","type":"amusement","rotate":null,"left_panel":true},"geometry":{"type":"Polygon","coordinates":[[[-122.384798366209537,47.670902551969661],[-122.384690457950725,47.670901032498598],[-122.384683961535032,47.669836143962399],[-122.384791759482582,47.669836146193639],[-122.384791078355292,47.670145632383189],[-122.385485845420902,47.670148573464978],[-122.385487119127944,47.670221171062174],[-122.384791306019906,47.670218225556383],[-122.384798366209537,47.670902551969661]]]}},{"type":"Feature","properties":{"show_label":"1","active":"0","toggleSymb":"keyboard_arrow_up","icon":null,"show_icon":null,"id":191,"name":"Festi-Bowl","type":"amusement","rotate":null,"left_panel":true},"geometry":{"type":"Polygon","coordinates":[[[-122.385749416332672,47.670318875744407],[-122.385788846609799,47.670404168458951],[-122.385796301487744,47.670461637501525],[-122.385786685562366,47.670488183188795],[-122.385770679829463,47.670511453006178],[-122.385715893331295,47.670556418115119],[-122.385644510889307,47.670599210498779],[-122.385497320713313,47.670523093330331],[-122.385498380083817,47.670452084396672],[-122.385526082153945,47.670410309248709],[-122.38556484725639,47.670367013179913],[-122.385610543184995,47.670315969071595],[-122.385749416332672,47.670318875744407]]]}},{"type":"Feature","properties":{"show_label":"","active":"","toggleSymb":"","icon":"","show_icon":"","id":190,"name":"Kid's Deck Stage","type":"amusement","rotate":null,"left_panel":null},"geometry":{"type":"Polygon","coordinates":[[[-122.385466094913653,47.67049375176304],[-122.385547827508262,47.670377655466105],[-122.385515900713486,47.670364755861591],[-122.385431613975314,47.670481712159059],[-122.385466094913653,47.67049375176304]]]}}]}